Source.Name,report_year,agency_id,ori,agency_name,state_abbr,primary_county_id,primary_county,population,nibrs_months_reported,icpsr_zip,icpsr_lat,icpsr_lng,coordinates
TX2004cde_agencies.csv,2004,19425,TX1350000,King County Sheriff's Office,TX,2749,King,257,0,79236,33.614159,-100.250548,"(33.614159, -100.250548)"
TX2004cde_agencies.csv,2004,19561,TX1730000,Motley County Sheriff's Office,TX,2787,Motley,1142,0,79244,34.057899,-100.793152,"(34.057899, -100.793152)"
TX2004cde_agencies.csv,2004,19209,TX0920500,Longview Police Department,TX,2706,Gregg,81842,12,75606,32.486397,-94.816276,"(32.486397, -94.816276)"
TX2004cde_agencies.csv,2004,19639,TX1990300,Heath Police Department,TX,2813,Rockwall,8176,12,75032,32.898054,-96.404396,"(32.898054, -96.404396)"
TX2004cde_agencies.csv,2004,19009,TX0570100,Addison Police Department,TX,2671,Dallas,16125,0,75001,32.766987,-96.778424,"(32.766987, -96.778424)"
TX2004cde_agencies.csv,2004,19787,TX2340100,Canton Police Department,TX,2848,Van Zandt,3579,0,75103,32.558948,-95.836391,"(32.558948, -95.836391)"
TX2004cde_agencies.csv,2004,19103,TX0700600,Milford Police Department,TX,2685,Ellis,730,0,76670,32.347294,-96.798231,"(32.347294, -96.798231)"
TX2004cde_agencies.csv,2004,19051,TX0600100,Cooper Police Department,TX,2674,Delta,1970,0,75432,33.385933,-95.67335,"(33.385933, -95.67335)"
TX2004cde_agencies.csv,2004,19058,TX0610800,Sanger Police Department,TX,2675,Denton,7768,0,76266,33.205005,-97.119046,"(33.205005, -97.119046)"
TX2004cde_agencies.csv,2004,19620,TX1910300,West Texas A&M University,TX,2805,Randall,0,0,79016,34.962529,-101.895547,"(34.962529, -101.895547)"
TX2004cde_agencies.csv,2004,19484,TX1530200,Tahoka Police Department,TX,2767,Lynn,2579,0,79373,33.178412,-101.818493,"(33.178412, -101.818493)"
TX2004cde_agencies.csv,2004,19332,TX1090000,Hill County Sheriff's Office,TX,2723,Hill,21440,0,76645,31.982681,-97.130668,"(31.982681, -97.130668)"
TX2004cde_agencies.csv,2004,19241,TX1010400,Deer Park Police Department,TX,2715,Harris,34131,0,77536,29.857273,-95.393037,"(29.857273, -95.393037)"
TX2004cde_agencies.csv,2004,19022,TX0571500,Irving Police Department,TX,2671,Dallas,236465,0,75015,32.766987,-96.778424,"(32.766987, -96.778424)"
TX2004cde_agencies.csv,2004,19677,TX2120300,Troup Police Department,TX,2826,Smith,1948,0,75789,32.375106,-95.268743,"(32.375106, -95.268743)"
TX2004cde_agencies.csv,2004,18977,TX0450300,Weimar Police Department,TX,2659,Colorado,2129,0,78962,29.595991,-96.508433,"(29.595991, -96.508433)"
TX2004cde_agencies.csv,2004,19326,TX1082400,Progreso Police Department,TX,2722,Hidalgo,5946,0,78579,26.396384,-98.18099,"(26.396384, -98.18099)"
TX2004cde_agencies.csv,2004,19298,TX1070000,Henderson County Sheriff's Office,TX,2721,Henderson,54564,0,75751,32.211633,-95.853418,"(32.211633, -95.853418)"
TX2004cde_agencies.csv,2004,19208,TX0920400,Kilgore Police Department,TX,2706,Gregg,15335,0,75663,32.486397,-94.816276,"(32.486397, -94.816276)"
TX2004cde_agencies.csv,2004,19551,TX1702000,Independent School District: Conroe,TX,2784,Montgomery,0,0,77301,30.299402,-95.504008,"(30.299402, -95.504008)"
TX2004cde_agencies.csv,2004,19384,TX1230500,Nederland Police Department,TX,2737,Jefferson,17141,0,77627,29.854,-94.149331,"(29.854, -94.149331)"
TX2004cde_agencies.csv,2004,19089,TX0670200,Eastland Police Department,TX,2681,Eastland,3838,0,76448,32.324645,-98.83656,"(32.324645, -98.83656)"
TX2004cde_agencies.csv,2004,19869,TXDPD0000,Dallas Police Department,TX,2671,Dallas,1301977,0,75215,32.766987,-96.778424,"(32.766987, -96.778424)"
TX2004cde_agencies.csv,2004,18778,TX0080200,Sealy Police Department,TX,2622,Austin,6336,0,77474,29.891901,-96.27017,"(29.891901, -96.27017)"
TX2004cde_agencies.csv,2004,18889,TX0270100,Burnet Police Department,TX,2641,Burnet,6173,0,78611,30.78963,-98.201187,"(30.78963, -98.201187)"
TX2004cde_agencies.csv,2004,19219,TX0950100,Abernathy Police Department,TX,2709,Hale,2732,0,79311,34.068436,-101.822888,"(34.068436, -101.822888)"
TX2004cde_agencies.csv,2004,19817,TX2420100,Shamrock Police Department,TX,2856,Wheeler,2040,0,79079,35.392593,-100.253107,"(35.392593, -100.253107)"
TX2004cde_agencies.csv,2004,19336,TX1090600,Whitney Police Department,TX,2723,Hill,2085,0,76692,31.982681,-97.130668,"(31.982681, -97.130668)"
TX2004cde_agencies.csv,2004,19851,TX2490000,Wise County Sheriff's Office,TX,2863,Wise,46991,0,76234,33.219095,-97.653997,"(33.219095, -97.653997)"
TX2004cde_agencies.csv,2004,19693,TX2160000,Sterling County Sheriff's Office,TX,2830,Sterling,1398,0,76951,31.835774,-101.054911,"(31.835774, -101.054911)"
TX2004cde_agencies.csv,2004,19236,TX1000300,Sour Lake Police Department,TX,2714,Hardin,1775,0,77659,30.329612,-94.393149,"(30.329612, -94.393149)"
TX2004cde_agencies.csv,2004,19541,TX1700100,Conroe Police Department,TX,2784,Montgomery,68197,12,77301,30.299402,-95.504008,"(30.299402, -95.504008)"
TX2004cde_agencies.csv,2004,19543,TX1700800,Patton Village Police Department,TX,2784,Montgomery,1632,0,77372,30.299402,-95.504008,"(30.299402, -95.504008)"
TX2004cde_agencies.csv,2004,19169,TX0840600,Kemah Police Department,TX,2698,Galveston,2008,0,77565,29.228364,-94.895428,"(29.228364, -94.895428)"
TX2004cde_agencies.csv,2004,18811,TX0150700,Hill Country Village Police Department,TX,2629,Bexar,1066,0,78232,29.448671,-98.520147,"(29.448671, -98.520147)"
TX2004cde_agencies.csv,2004,18819,TX0151500,Windcrest Police Department,TX,2629,Bexar,5800,0,78239,29.448671,-98.520147,"(29.448671, -98.520147)"
TX2004cde_agencies.csv,2004,19802,TX2380000,Ward County Sheriff's Office,TX,2852,Ward,4120,0,79756,31.513069,-103.105113,"(31.513069, -103.105113)"
TX2004cde_agencies.csv,2004,19650,TX2020200,Pineland Police Department,TX,2816,Sabine,805,0,75968,31.3433,-93.851913,"(31.3433, -93.851913)"
TX2004cde_agencies.csv,2004,18943,TX0370300,Rusk Police Department,TX,2651,Cherokee,5585,0,75785,31.843872,-95.156345,"(31.843872, -95.156345)"
TX2004cde_agencies.csv,2004,18948,TX0380100,Childress Police Department,TX,2652,Childress,6084,0,79201,34.529337,-100.208336,"(34.529337, -100.208336)"
TX2004cde_agencies.csv,2004,18919,TX0311400,Texas State Technical College: Harlingen,TX,2645,Cameron,0,0,78550,26.102923,-97.478958,"(26.102923, -97.478958)"
TX2004cde_agencies.csv,2004,19628,TX1950200,Pecos Police Department,TX,2809,Reeves,9321,0,79772,31.308366,-103.712706,"(31.308366, -103.712706)"
TX2004cde_agencies.csv,2004,19154,TX0810000,Freestone County Sheriff's Office,TX,2695,Freestone,12239,0,75840,31.70126,-96.144487,"(31.70126, -96.144487)"
TX2004cde_agencies.csv,2004,19199,TX0910600,Whitesboro Police Department,TX,2705,Grayson,3877,0,76273,33.624508,-96.675699,"(33.624508, -96.675699)"
TX2004cde_agencies.csv,2004,19310,TX1080200,Donna Police Department,TX,2722,Hidalgo,16609,0,78537,26.396384,-98.18099,"(26.396384, -98.18099)"
TX2004cde_agencies.csv,2004,19151,TX0791300,Meadows Place Police Department,TX,2693,Fort Bend,4778,0,77477,29.526602,-95.771015,"(29.526602, -95.771015)"
TX2004cde_agencies.csv,2004,19277,TX1017100,Independent School District: Spring,TX,2715,Harris,0,0,77090,29.857273,-95.393037,"(29.857273, -95.393037)"
TX2004cde_agencies.csv,2004,19215,TX0940200,Schertz Police Department,TX,2708,Guadalupe,38201,0,78154,29.583532,-97.948858,"(29.583532, -97.948858)"
TX2004cde_agencies.csv,2004,19313,TX1080500,Elsa Police Department,TX,2722,Hidalgo,6876,11,78543,26.396384,-98.18099,"(26.396384, -98.18099)"
TX2004cde_agencies.csv,2004,19203,TX0911900,Austin College,TX,2705,Grayson,0,0,75090,33.624508,-96.675699,"(33.624508, -96.675699)"
TX2004cde_agencies.csv,2004,19452,TX1440000,Lee County Sheriff's Office,TX,2758,Lee,10562,0,78942,30.321105,-96.976365,"(30.321105, -96.976365)"
TX2004cde_agencies.csv,2004,18934,TX0341400,Bloomburg Police Department,TX,2648,Cass,397,0,75556,33.083698,-94.357579,"(33.083698, -94.357579)"
TX2004cde_agencies.csv,2004,19026,TX0572000,Richardson Police Department,TX,2671,Dallas,111008,0,75083,32.766987,-96.778424,"(32.766987, -96.778424)"
TX2004cde_agencies.csv,2004,18913,TX0310700,Primera Police Department,TX,2645,Cameron,4242,0,78552,26.102923,-97.478958,"(26.102923, -97.478958)"
TX2004cde_agencies.csv,2004,18879,TX0240000,Brooks County Sheriff's Office,TX,2638,Brooks,2268,0,78355,27.034994,-98.215276,"(27.034994, -98.215276)"
TX2004cde_agencies.csv,2004,19040,TX0575000,Hospital District: Dallas County,TX,2671,Dallas,0,0,75235,32.766987,-96.778424,"(32.766987, -96.778424)"
TX2004cde_agencies.csv,2004,19111,TX0711100,El Paso Community College,TX,2684,El Paso,0,0,79998,31.766403,-106.24139,"(31.766403, -106.24139)"
TX2004cde_agencies.csv,2004,19745,TX2220000,Terrell County Sheriff's Office,TX,2836,Terrell,910,0,79848,30.232332,-102.072539,"(30.232332, -102.072539)"
TX2004cde_agencies.csv,2004,19629,TX1960000,Refugio County Sheriff's Office,TX,2810,Refugio,4477,0,78377,28.312716,-97.161366,"(28.312716, -97.161366)"
TX2004cde_agencies.csv,2004,19196,TX0910300,Pottsboro Police Department,TX,2705,Grayson,2231,0,75076,33.624508,-96.675699,"(33.624508, -96.675699)"
TX2004cde_agencies.csv,2004,19509,TX1580000,Marion County Sheriff's Office,TX,2769,Marion,8051,0,75657,32.798182,-94.356853,"(32.798182, -94.356853)"
TX2004cde_agencies.csv,2004,19520,TX1630000,Medina County Sheriff's Office,TX,2777,Medina,30032,0,78861,29.353661,-99.111085,"(29.353661, -99.111085)"
TX2004cde_agencies.csv,2004,18963,TX0430600,Plano Police Department,TX,2657,Collin,282968,12,75086,33.194745,-96.579846,"(33.194745, -96.579846)"
TX2004cde_agencies.csv,2004,19718,TX2202000,Mansfield Police Department,TX,2834,Tarrant,63684,0,76063,32.77204,-97.291291,"(32.77204, -97.291291)"
TX2004cde_agencies.csv,2004,18955,TX0420100,Coleman Police Department,TX,2656,Coleman,4387,0,76834,31.914205,-99.346622,"(31.914205, -99.346622)"
TX2004cde_agencies.csv,2004,19317,TX1080900,Mercedes Police Department,TX,2722,Hidalgo,16788,0,78570,26.396384,-98.18099,"(26.396384, -98.18099)"
TX2004cde_agencies.csv,2004,18797,TX0140500,Nolanville Police Department,TX,2628,Bell,4671,0,76559,31.042303,-97.481374,"(31.042303, -97.481374)"
TX2004cde_agencies.csv,2004,19747,TX2230100,Brownfield Police Department,TX,2837,Terry,9733,0,79316,33.171229,-102.339284,"(33.171229, -102.339284)"
TX2004cde_agencies.csv,2004,18971,TX0432600,Anna Police Department,TX,2657,Collin,11235,0,75409,33.194745,-96.579846,"(33.194745, -96.579846)"
TX2004cde_agencies.csv,2004,18854,TX0200400,Danbury Police Department,TX,2634,Brazoria,1767,0,77534,29.167817,-95.434647,"(29.167817, -95.434647)"
TX2004cde_agencies.csv,2004,19822,TX2430500,Wichita Falls Police Department,TX,2857,Wichita,105186,0,76301,33.991103,-98.716851,"(33.991103, -98.716851)"
TX2004cde_agencies.csv,2004,18786,TX0110200,Elgin Police Department,TX,2625,Bastrop,8744,0,78621,30.100691,-97.310614,"(30.100691, -97.310614)"
TX2004cde_agencies.csv,2004,19472,TX1520000,Lubbock County Sheriff's Office,TX,2766,Lubbock,33099,12,79401,33.611469,-101.819944,"(33.611469, -101.819944)"
TX2004cde_agencies.csv,2004,19002,TX0540200,Lorenzo Police Department,TX,2668,Crosby,1148,0,79343,33.609144,-101.29871,"(33.609144, -101.29871)"
TX2004cde_agencies.csv,2004,19746,TX2230000,Terry County Sheriff's Office,TX,2837,Terry,3053,0,79316,33.171229,-102.339284,"(33.171229, -102.339284)"
TX2004cde_agencies.csv,2004,19784,TX2330000,Val Verde County Sheriff's Office,TX,2847,Val Verde,12982,0,78841,29.884961,-101.146646,"(29.884961, -101.146646)"
TX2004cde_agencies.csv,2004,19478,TX1520800,Wolfforth Police Department,TX,2766,Lubbock,4215,3,79382,33.611469,-101.819944,"(33.611469, -101.819944)"
TX2004cde_agencies.csv,2004,19150,TX0791200,Arcola Police Department,TX,2693,Fort Bend,1672,0,77583,29.526602,-95.771015,"(29.526602, -95.771015)"
TX2004cde_agencies.csv,2004,19607,TX1870400,Corrigan Police Department,TX,2801,Polk,1525,0,75939,30.784553,-94.837338,"(30.784553, -94.837338)"
TX2004cde_agencies.csv,2004,19636,TX1990000,Rockwall County Sheriff's Office,TX,2813,Rockwall,21484,12,75087,32.898054,-96.404396,"(32.898054, -96.404396)"
TX2004cde_agencies.csv,2004,19410,TX1290100,Forney Police Department,TX,2743,Kaufman,18314,12,75126,32.598944,-96.288378,"(32.598944, -96.288378)"
TX2004cde_agencies.csv,2004,19654,TX2050000,San Patricio County Sheriff's Office,TX,2819,San Patricio,17649,0,78387,28.011786,-97.517162,"(28.011786, -97.517162)"
TX2004cde_agencies.csv,2004,18951,TX0400000,Cochran County Sheriff's Office,TX,2654,Cochran,2892,0,79346,33.60844,-102.830449,"(33.60844, -102.830449)"
TX2004cde_agencies.csv,2004,19523,TX1630300,Hondo Police Department,TX,2777,Medina,9114,0,78861,29.353661,-99.111085,"(29.353661, -99.111085)"
TX2004cde_agencies.csv,2004,19399,TX1260600,Keene Police Department,TX,2740,Johnson,6168,1,76059,32.379784,-97.364952,"(32.379784, -97.364952)"
TX2004cde_agencies.csv,2004,19604,TX1860100,Fort Stockton Police Department,TX,2800,Pecos,8527,0,79735,30.770894,-102.71986,"(30.770894, -102.71986)"
TX2004cde_agencies.csv,2004,18904,TX0300100,Baird Police Department,TX,2644,Callahan,1476,0,79504,32.29315,-99.372249,"(32.29315, -99.372249)"
TX2004cde_agencies.csv,2004,18837,TX0170000,Borden County Sheriff's Office,TX,2631,Borden,656,0,79738,32.73859,-101.439199,"(32.73859, -101.439199)"
TX2004cde_agencies.csv,2004,19566,TX1750100,Corsicana Police Department,TX,2789,Navarro,24027,0,75110,32.04845,-96.476908,"(32.04845, -96.476908)"
TX2004cde_agencies.csv,2004,19833,TX2460200,Georgetown Police Department,TX,2860,Williamson,62264,12,78626,30.64903,-97.605069,"(30.64903, -97.605069)"
TX2004cde_agencies.csv,2004,19274,TX1016700,Independent School District: Katy,TX,2715,Harris,0,0,77449,29.857273,-95.393037,"(29.857273, -95.393037)"
TX2004cde_agencies.csv,2004,19367,TX1170000,Hutchinson County Sheriff's Office,TX,2731,Hutchinson,6962,0,79008,35.837047,-101.362746,"(35.837047, -101.362746)"
TX2004cde_agencies.csv,2004,19081,TX0650000,Donley County Sheriff's Office,TX,2679,Donley,3507,0,79226,34.955036,-100.815846,"(34.955036, -100.815846)"
TX2004cde_agencies.csv,2004,19577,TX1781500,Texas A&M University: Corpus Christi,TX,2792,Nueces,0,0,78412,27.738129,-97.518441,"(27.738129, -97.518441)"
TX2004cde_agencies.csv,2004,19080,TX0640100,Carrizo Springs Police Department,TX,2678,Dimmit,6110,0,78834,28.423587,-99.765871,"(28.423587, -99.765871)"
TX2004cde_agencies.csv,2004,18886,TX0260100,Caldwell Police Department,TX,2640,Burleson,4243,0,77836,30.493487,-96.622091,"(30.493487, -96.622091)"
TX2004cde_agencies.csv,2004,19101,TX0700400,Italy Police Department,TX,2685,Ellis,1888,0,76651,32.347294,-96.798231,"(32.347294, -96.798231)"
TX2004cde_agencies.csv,2004,18959,TX0430200,Celina Police Department,TX,2657,Collin,7367,0,75009,33.194745,-96.579846,"(33.194745, -96.579846)"
TX2004cde_agencies.csv,2004,19512,TX1590100,Stanton Police Department,TX,2770,Martin,2933,0,79782,32.30983,-101.961836,"(32.30983, -101.961836)"
TX2004cde_agencies.csv,2004,19119,TX0720100,Dublin Police Department,TX,2686,Erath,3616,0,76446,32.238136,-98.222377,"(32.238136, -98.222377)"
TX2004cde_agencies.csv,2004,19264,TX1013900,University of Houston: Clearlake,TX,2715,Harris,0,0,77058,29.857273,-95.393037,"(29.857273, -95.393037)"
TX2004cde_agencies.csv,2004,19225,TX0970100,Hamilton Police Department,TX,2711,Hamilton,2932,0,76531,31.706982,-98.111794,"(31.706982, -98.111794)"
TX2004cde_agencies.csv,2004,19635,TX1980300,Hearne Police Department,TX,2812,Robertson,4408,0,77859,31.025481,-96.514941,"(31.025481, -96.514941)"
TX2004cde_agencies.csv,2004,19023,TX0571600,Kleburg Police Department,TX,2671,Dallas,0,0,75253,27.438735,-97.66062,"(27.438735, -97.66062)"
TX2004cde_agencies.csv,2004,19148,TX0790700,Needville Police Department,TX,2693,Fort Bend,3087,0,77461,29.526602,-95.771015,"(29.526602, -95.771015)"
TX2004cde_agencies.csv,2004,19389,TX1240000,Jim Hogg County Sheriff's Office,TX,2738,Jim Hogg,5257,0,78361,27.041212,-98.700127,"(27.041212, -98.700127)"
TX2004cde_agencies.csv,2004,19835,TX2460400,Hutto Police Department,TX,2860,Williamson,22458,0,78634,30.64903,-97.605069,"(30.64903, -97.605069)"
TX2004cde_agencies.csv,2004,18938,TX0360000,Chambers County Sheriff's Office,TX,2650,Chambers,29603,0,77514,29.703933,-94.668875,"(29.703933, -94.668875)"
TX2004cde_agencies.csv,2004,19037,TX0574400,Mountain View College,TX,2671,Dallas,0,0,75211,32.766987,-96.778424,"(32.766987, -96.778424)"
TX2004cde_agencies.csv,2004,19516,TX1610200,Palacios Police Department,TX,2772,Matagorda,4638,0,77465,28.783341,-95.997755,"(28.783341, -95.997755)"
TX2004cde_agencies.csv,2004,18890,TX0270200,Marble Falls Police Department,TX,2641,Burnet,6212,12,78654,30.78963,-98.201187,"(30.78963, -98.201187)"
TX2004cde_agencies.csv,2004,19728,TX2203000,Keller Police Department,TX,2834,Tarrant,45009,0,76248,32.77204,-97.291291,"(32.77204, -97.291291)"
TX2004cde_agencies.csv,2004,18958,TX0430100,Allen Police Department,TX,2657,Collin,96642,0,75013,33.194745,-96.579846,"(33.194745, -96.579846)"
TX2004cde_agencies.csv,2004,19003,TX0540300,Ralls Police Department,TX,2668,Crosby,1863,0,79357,33.609144,-101.29871,"(33.609144, -101.29871)"
TX2004cde_agencies.csv,2004,18845,TX0190300,Nash Police Department,TX,2633,Bowie,3188,0,75569,33.446051,-94.422375,"(33.446051, -94.422375)"
TX2004cde_agencies.csv,2004,19349,TX1120200,Sulphur Springs Police Department,TX,2726,Hopkins,16103,0,75482,33.148959,-95.565194,"(33.148959, -95.565194)"
TX2004cde_agencies.csv,2004,19615,TX1890100,Marfa Police Department,TX,2803,Presidio,1711,0,79843,30.005891,-104.261619,"(30.005891, -104.261619)"
TX2004cde_agencies.csv,2004,18850,TX0200000,Brazoria County Sheriff's Office,TX,2634,Brazoria,117448,0,77515,29.167817,-95.434647,"(29.167817, -95.434647)"
TX2004cde_agencies.csv,2004,19748,TX2240000,Throckmorton County Sheriff's Office,TX,2838,Throckmorton,1606,0,76483,33.170712,-99.206137,"(33.170712, -99.206137)"
TX2004cde_agencies.csv,2004,19826,TX2450000,Willacy County Sheriff's Office,TX,2859,Willacy,8227,0,78580,26.481092,-97.584223,"(26.481092, -97.584223)"
TX2004cde_agencies.csv,2004,19751,TX2260000,Tom Green County Sheriff's Office,TX,2840,Tom Green,18042,0,76903,31.401594,-100.461374,"(31.401594, -100.461374)"
TX2004cde_agencies.csv,2004,19015,TX0570800,Desoto Police Department,TX,2671,Dallas,52609,0,75115,32.766987,-96.778424,"(32.766987, -96.778424)"
TX2004cde_agencies.csv,2004,18985,TX0480000,Concho County Sheriff's Office,TX,2662,Concho,4048,0,76866,31.318865,-99.863648,"(31.318865, -99.863648)"
TX2004cde_agencies.csv,2004,19230,TX0990000,Hardeman County Sheriff's Office,TX,2713,Hardeman,3217,12,79252,34.289904,-99.745697,"(34.289904, -99.745697)"
TX2004cde_agencies.csv,2004,19440,TX1400300,Littlefield Police Department,TX,2755,Lamb,6129,0,79339,34.068861,-102.348018,"(34.068861, -102.348018)"
TX2004cde_agencies.csv,2004,19050,TX0600000,Delta County Sheriff's Office,TX,2674,Delta,5249,0,75432,33.385933,-95.67335,"(33.385933, -95.67335)"
TX2004cde_agencies.csv,2004,19470,TX1500500,Sunrise Beach Village Police Department,TX,2764,Llano,720,0,78643,30.707584,-98.68469,"(30.707584, -98.68469)"
TX2004cde_agencies.csv,2004,19783,TX2320200,Sabinal Police Department,TX,2846,Uvalde,1713,0,78881,29.35034,-99.761074,"(29.35034, -99.761074)"
TX2004cde_agencies.csv,2004,18979,TX0460100,New Braunfels Police Department,TX,2660,Comal,68641,0,78130,29.806091,-98.260554,"(29.806091, -98.260554)"
TX2004cde_agencies.csv,2004,19183,TX0860100,Fredericksburg Police Department,TX,2700,Gillespie,10971,0,78624,30.325079,-98.941851,"(30.325079, -98.941851)"
TX2004cde_agencies.csv,2004,19377,TX1210100,Jasper Police Department,TX,2735,Jasper,7638,0,75951,30.752932,-94.022294,"(30.752932, -94.022294)"
TX2004cde_agencies.csv,2004,19436,TX1390400,Paris Junior College,TX,2754,Lamar,0,0,75460,33.667263,-95.570348,"(33.667263, -95.570348)"
TX2004cde_agencies.csv,2004,18895,TX0280000,Caldwell County Sheriff's Office,TX,2642,Caldwell,19467,0,78644,29.840062,-97.630394,"(29.840062, -97.630394)"
TX2004cde_agencies.csv,2004,19441,TX1400400,Olton Police Department,TX,2755,Lamb,2143,0,79064,34.068861,-102.348018,"(34.068861, -102.348018)"
TX2004cde_agencies.csv,2004,19234,TX1000100,Kountze Police Department,TX,2714,Hardin,2089,0,77625,30.329612,-94.393149,"(30.329612, -94.393149)"
TX2004cde_agencies.csv,2004,19180,TX0850000,Garza County Sheriff's Office,TX,2699,Garza,6443,0,79356,33.183792,-101.301134,"(33.183792, -101.301134)"
TX2004cde_agencies.csv,2004,19004,TX0550000,Culberson County Sheriff's Office,TX,2669,Culberson,2239,0,79855,31.445908,-104.526945,"(31.445908, -104.526945)"
TX2004cde_agencies.csv,2004,19314,TX1080600,Hidalgo Police Department,TX,2722,Hidalgo,13732,0,78557,26.396384,-98.18099,"(26.396384, -98.18099)"
TX2004cde_agencies.csv,2004,19497,TX1551100,Robinson Police Department,TX,2775,Mclennan,11635,0,76706,31.549493,-97.201472,"(31.549493, -97.201472)"
TX2004cde_agencies.csv,2004,19496,TX1551000,Northcrest Police Department,TX,2775,Mclennan,0,0,76705,31.549493,-97.201472,"(31.549493, -97.201472)"
TX2004cde_agencies.csv,2004,19100,TX0700200,Ferris Police Department,TX,2685,Ellis,2523,0,75125,32.347294,-96.798231,"(32.347294, -96.798231)"
TX2004cde_agencies.csv,2004,19408,TX1280200,Kenedy Police Department,TX,2742,Karnes,3463,0,78119,28.907618,-97.860767,"(28.907618, -97.860767)"
TX2004cde_agencies.csv,2004,19090,TX0670300,Gorman Police Department,TX,2681,Eastland,1040,0,76454,32.324645,-98.83656,"(32.324645, -98.83656)"
TX2004cde_agencies.csv,2004,18799,TX0140900,Central Texas College,TX,2628,Bell,0,0,76540,31.042303,-97.481374,"(31.042303, -97.481374)"
TX2004cde_agencies.csv,2004,19856,TX2500200,Hawkins Police Department,TX,2864,Wood,1290,0,75765,32.783588,-95.382166,"(32.783588, -95.382166)"
TX2004cde_agencies.csv,2004,19082,TX0650100,Clarendon Police Department,TX,2679,Donley,1953,0,79226,34.955036,-100.815846,"(34.955036, -100.815846)"
TX2004cde_agencies.csv,2004,19578,TX1781600,Independent School District: Corpus Christi,TX,2792,Nueces,0,0,78408,27.738129,-97.518441,"(27.738129, -97.518441)"
TX2004cde_agencies.csv,2004,19845,TX2470200,Poth Police Department,TX,2861,Wilson,2152,0,78147,29.173883,-98.086734,"(29.173883, -98.086734)"
TX2004cde_agencies.csv,2004,19588,TX1810500,West Orange Police Department,TX,2795,Orange,3456,0,77630,30.120918,-93.893358,"(30.120918, -93.893358)"
TX2004cde_agencies.csv,2004,18804,TX0141800,Salado Police Department,TX,2628,Bell,2133,0,76571,31.042303,-97.481374,"(31.042303, -97.481374)"
TX2004cde_agencies.csv,2004,19091,TX0670400,Ranger Police Department,TX,2681,Eastland,2450,0,76470,32.324645,-98.83656,"(32.324645, -98.83656)"
TX2004cde_agencies.csv,2004,19766,TX2272300,Mustang Ridge Police Department,TX,2841,Travis,983,0,78610,30.239513,-97.69127,"(30.239513, -97.69127)"
TX2004cde_agencies.csv,2004,19841,TX2461800,Thrall Police Department,TX,2860,Williamson,922,0,76578,30.64903,-97.605069,"(30.64903, -97.605069)"
TX2004cde_agencies.csv,2004,18793,TX0140100,Bartlett Police Department,TX,2860,Williamson,2765,0,76511,30.64903,-97.605069,"(30.64903, -97.605069)"
TX2004cde_agencies.csv,2004,19585,TX1810200,Orange Police Department,TX,2795,Orange,18983,0,77630,30.120918,-93.893358,"(30.120918, -93.893358)"
TX2004cde_agencies.csv,2004,19319,TX1081100,Pharr Police Department,TX,2722,Hidalgo,76576,0,78577,26.396384,-98.18099,"(26.396384, -98.18099)"
TX2004cde_agencies.csv,2004,19299,TX1070100,Athens Police Department,TX,2721,Henderson,12844,0,75751,32.211633,-95.853418,"(32.211633, -95.853418)"
TX2004cde_agencies.csv,2004,19755,TX2270000,Travis County Sheriff's Office,TX,2841,Travis,202906,0,78767,30.239513,-97.69127,"(30.239513, -97.69127)"
TX2004cde_agencies.csv,2004,19444,TX1410100,Lampasas Police Department,TX,2756,Lampasas,7353,4,76550,31.196731,-98.240889,"(31.196731, -98.240889)"
TX2004cde_agencies.csv,2004,19692,TX2150100,Breckenridge Police Department,TX,2829,Stephens,5494,0,76424,32.736306,-98.836119,"(32.736306, -98.836119)"
TX2004cde_agencies.csv,2004,19342,TX1100500,Anton Police Department,TX,2724,Hockley,1150,0,79313,33.605932,-102.343398,"(33.605932, -102.343398)"
TX2004cde_agencies.csv,2004,19198,TX0910500,Van Alstyne Police Department,TX,2705,Grayson,3265,0,75495,33.624508,-96.675699,"(33.624508, -96.675699)"
TX2004cde_agencies.csv,2004,19311,TX1080300,Edcouch Police Department,TX,2722,Hidalgo,3302,12,78538,26.396384,-98.18099,"(26.396384, -98.18099)"
TX2004cde_agencies.csv,2004,19280,TX1017600,St. Thomas University,TX,2715,Harris,0,0,77006,29.857273,-95.393037,"(29.857273, -95.393037)"
TX2004cde_agencies.csv,2004,19099,TX0700100,Ennis Police Department,TX,2685,Ellis,18885,0,75119,32.347294,-96.798231,"(32.347294, -96.798231)"
TX2004cde_agencies.csv,2004,18843,TX0190000,Bowie County Sheriff's Office,TX,2633,Bowie,38422,0,75501,33.446051,-94.422375,"(33.446051, -94.422375)"
TX2004cde_agencies.csv,2004,19093,TX0680000,Ector County Sheriff's Office,TX,2682,Ector,42191,0,79760,31.865301,-102.542507,"(31.865301, -102.542507)"
TX2004cde_agencies.csv,2004,19595,TX1840100,Weatherford Police Department,TX,2798,Parker,28379,0,76086,32.777096,-97.805905,"(32.777096, -97.805905)"
TX2004cde_agencies.csv,2004,19177,TX0842100,Santa Fe Police Department,TX,2698,Galveston,12982,0,77510,29.228364,-94.895428,"(29.228364, -94.895428)"
TX2004cde_agencies.csv,2004,19346,TX1110300,Tolar Police Department,TX,2725,Hood,801,0,76476,32.430149,-97.831677,"(32.430149, -97.831677)"
TX2004cde_agencies.csv,2004,19181,TX0850100,Post Police Department,TX,2699,Garza,5362,0,79356,33.183792,-101.301134,"(33.183792, -101.301134)"
TX2004cde_agencies.csv,2004,19368,TX1170100,Borger Police Department,TX,2731,Hutchinson,12893,7,79007,35.837047,-101.362746,"(35.837047, -101.362746)"
TX2004cde_agencies.csv,2004,18798,TX0140700,Temple Police Department,TX,2628,Bell,71780,12,76501,31.042303,-97.481374,"(31.042303, -97.481374)"
TX2004cde_agencies.csv,2004,19495,TX1550800,Mart Police Department,TX,2775,Mclennan,1921,0,76664,31.549493,-97.201472,"(31.549493, -97.201472)"
TX2004cde_agencies.csv,2004,19591,TX1820200,Mineral Wells Police Department,TX,2796,Palo Pinto,15038,0,76067,32.75221,-98.317974,"(32.75221, -98.317974)"
TX2004cde_agencies.csv,2004,19395,TX1260100,Alvarado Police Department,TX,2740,Johnson,3937,0,76009,32.379784,-97.364952,"(32.379784, -97.364952)"
TX2004cde_agencies.csv,2004,19182,TX0860000,Gillespie County Sheriff's Office,TX,2700,Gillespie,14770,0,78624,30.325079,-98.941851,"(30.325079, -98.941851)"
TX2004cde_agencies.csv,2004,19403,TX1270200,Hamlin Police Department,TX,2741,Jones,2015,0,79520,32.743709,-99.87443,"(32.743709, -99.87443)"
TX2004cde_agencies.csv,2004,19229,TX0980200,Spearman Police Department,TX,2712,Hansford,3296,0,79081,36.272847,-101.35693,"(36.272847, -101.35693)"
TX2004cde_agencies.csv,2004,19779,TX2310000,Upton County Sheriff's Office,TX,2845,Upton,3490,0,79778,31.353849,-102.042013,"(31.353849, -102.042013)"
TX2004cde_agencies.csv,2004,19243,TX1010600,Galena Park Police Department,TX,2715,Harris,11240,0,77547,29.857273,-95.393037,"(29.857273, -95.393037)"
TX2004cde_agencies.csv,2004,19072,TX0613200,Ponder Police Department,TX,2675,Denton,1506,0,76259,33.205005,-97.119046,"(33.205005, -97.119046)"
TX2004cde_agencies.csv,2004,19601,TX1850200,Friona Police Department,TX,2799,Parmer,3930,0,79035,34.532163,-102.784853,"(34.532163, -102.784853)"
TX2004cde_agencies.csv,2004,19361,TX1160600,Texas A&M University: Commerce,TX,2730,Hunt,0,12,75429,33.123292,-96.084202,"(33.123292, -96.084202)"
TX2004cde_agencies.csv,2004,19350,TX1130000,Houston County Sheriff's Office,TX,2727,Houston,14678,0,75835,31.323036,-95.4216,"(31.323036, -95.4216)"
TX2004cde_agencies.csv,2004,19206,TX0920000,Gregg County Sheriff's Office,TX,2706,Gregg,22124,0,75601,32.486397,-94.816276,"(32.486397, -94.816276)"
TX2004cde_agencies.csv,2004,19240,TX1010200,Bellaire Police Department,TX,2715,Harris,18605,0,77401,29.857273,-95.393037,"(29.857273, -95.393037)"
TX2004cde_agencies.csv,2004,19698,TX2190200,Kress Police Department,TX,2833,Swisher,684,0,79052,34.53046,-101.732852,"(34.53046, -101.732852)"
TX2004cde_agencies.csv,2004,19771,TX2280100,Trinity Police Department,TX,2842,Trinity,2699,0,75862,31.087483,-95.153291,"(31.087483, -95.153291)"
TX2004cde_agencies.csv,2004,19658,TX2050400,Sinton Police Department,TX,2819,San Patricio,5775,0,78387,28.011786,-97.517162,"(28.011786, -97.517162)"
TX2004cde_agencies.csv,2004,18842,TX0180900,Walnut Springs Police Department Police Department,TX,2632,Bosque,799,0,76690,31.900764,-97.637632,"(31.900764, -97.637632)"
TX2004cde_agencies.csv,2004,19201,TX0911000,Howe Police Department,TX,2705,Grayson,2616,0,75459,33.624508,-96.675699,"(33.624508, -96.675699)"
TX2004cde_agencies.csv,2004,19786,TX2340000,Van Zandt County Sheriff's Office,TX,2848,Van Zandt,38794,0,75103,32.558948,-95.836391,"(32.558948, -95.836391)"
TX2004cde_agencies.csv,2004,18898,TX0280900,Martindale Police Department,TX,2642,Caldwell,1224,0,78655,29.840062,-97.630394,"(29.840062, -97.630394)"
TX2004cde_agencies.csv,2004,19335,TX1090300,Itasca Police Department,TX,2723,Hill,1615,0,76055,31.982681,-97.130668,"(31.982681, -97.130668)"
TX2004cde_agencies.csv,2004,19810,TX2400600,Texas A&M International University,TX,2854,Webb,0,0,78041,27.770584,-99.326641,"(27.770584, -99.326641)"
TX2004cde_agencies.csv,2004,18964,TX0430700,Prosper Police Department,TX,2657,Collin,15909,0,75078,33.194745,-96.579846,"(33.194745, -96.579846)"
TX2004cde_agencies.csv,2004,19027,TX0572100,Sachse Police Department,TX,2671,Dallas,24564,12,75048,32.766987,-96.778424,"(32.766987, -96.778424)"
TX2004cde_agencies.csv,2004,19170,TX0840700,La Marque Police Department,TX,2698,Galveston,15768,0,77568,29.228364,-94.895428,"(29.228364, -94.895428)"
TX2004cde_agencies.csv,2004,19057,TX0610700,Pilot Point Police Department,TX,2675,Denton,4104,0,76258,33.205005,-97.119046,"(33.205005, -97.119046)"
TX2004cde_agencies.csv,2004,19158,TX0820000,Frio County Sheriff's Office,TX,2696,Frio,4653,0,78061,28.869334,-99.108788,"(28.869334, -99.108788)"
TX2004cde_agencies.csv,2004,19321,TX1081400,Weslaco Police Department,TX,2722,Hidalgo,38109,0,78596,26.396384,-98.18099,"(26.396384, -98.18099)"
TX2004cde_agencies.csv,2004,19159,TX0820100,Pearsall Police Department,TX,2696,Frio,10031,0,78061,28.869334,-99.108788,"(28.869334, -99.108788)"
TX2004cde_agencies.csv,2004,18935,TX0350000,Castro County Sheriff's Office,TX,2649,Castro,3493,0,79027,34.533621,-102.258786,"(34.533621, -102.258786)"
TX2004cde_agencies.csv,2004,19642,TX2000300,Winters Police Department,TX,2814,Runnels,2523,0,79567,31.845112,-99.982715,"(31.845112, -99.982715)"
TX2004cde_agencies.csv,2004,19546,TX1701400,Willis Police Department,TX,2784,Montgomery,6375,0,77378,30.299402,-95.504008,"(30.299402, -95.504008)"
TX2004cde_agencies.csv,2004,19749,TX2250000,Titus County Sheriff's Office,TX,2839,Titus,16580,0,75455,33.214599,-94.966783,"(33.214599, -94.966783)"
TX2004cde_agencies.csv,2004,19137,TX0770000,Floyd County Sheriff's Office,TX,2691,Floyd,3099,0,79235,34.07373,-101.303274,"(34.07373, -101.303274)"
TX2004cde_agencies.csv,2004,19341,TX1100400,South Plains College,TX,2724,Hockley,0,0,79336,33.605932,-102.343398,"(33.605932, -102.343398)"
TX2004cde_agencies.csv,2004,18946,TX0371200,Cuney Police Department,TX,2651,Cherokee,139,0,75759,31.843872,-95.156345,"(31.843872, -95.156345)"
TX2004cde_agencies.csv,2004,19562,TX1740000,Nacogdoches County Sheriff's Office,TX,2788,Nacogdoches,31739,12,75964,31.62056,-94.62025,"(31.62056, -94.62025)"
TX2004cde_agencies.csv,2004,19268,TX1015700,Houston Metropolitan Transit Authority,TX,2715,Harris,0,0,77002,29.857273,-95.393037,"(29.857273, -95.393037)"
TX2004cde_agencies.csv,2004,19065,TX0612000,Highland Village Police Department,TX,2675,Denton,16214,0,75077,33.205005,-97.119046,"(33.205005, -97.119046)"
TX2004cde_agencies.csv,2004,19337,TX1090900,Covington Police Department,TX,2723,Hill,269,0,76636,31.982681,-97.130668,"(31.982681, -97.130668)"
TX2004cde_agencies.csv,2004,19815,TX2410200,Wharton Police Department,TX,2855,Wharton,8618,0,77488,29.27848,-96.229674,"(29.27848, -96.229674)"
TX2004cde_agencies.csv,2004,19540,TX1700000,Montgomery County Sheriff's Office,TX,2784,Montgomery,441523,0,77301,30.299402,-95.504008,"(30.299402, -95.504008)"
TX2004cde_agencies.csv,2004,19579,TX1781700,Driscoll Police Department,TX,2792,Nueces,760,0,78351,27.738129,-97.518441,"(27.738129, -97.518441)"
TX2004cde_agencies.csv,2004,19087,TX0670000,Eastland County Sheriff's Office,TX,2681,Eastland,6218,0,76448,32.324645,-98.83656,"(32.324645, -98.83656)"
TX2004cde_agencies.csv,2004,19421,TX1330100,Kerrville Police Department,TX,2747,Kerr,23034,0,78028,30.059953,-99.353339,"(30.059953, -99.353339)"
TX2004cde_agencies.csv,2004,19491,TX1550400,Hewitt Police Department,TX,2775,Mclennan,14307,12,76643,31.549493,-97.201472,"(31.549493, -97.201472)"
TX2004cde_agencies.csv,2004,19406,TX1280000,Karnes County Sheriff's Office,TX,2742,Karnes,8104,0,78118,28.907618,-97.860767,"(28.907618, -97.860767)"
TX2004cde_agencies.csv,2004,19157,TX0810300,Wortham Police Department,TX,2695,Freestone,1058,0,76693,31.70126,-96.144487,"(31.70126, -96.144487)"
TX2004cde_agencies.csv,2004,19145,TX0790300,Rosenberg Police Department,TX,2693,Fort Bend,35238,0,77471,29.526602,-95.771015,"(29.526602, -95.771015)"
TX2004cde_agencies.csv,2004,19394,TX1260000,Johnson County Sheriff's Office,TX,2740,Johnson,73420,0,76031,32.379784,-97.364952,"(32.379784, -97.364952)"
TX2004cde_agencies.csv,2004,19216,TX0940300,Seguin Police Department,TX,2708,Guadalupe,27504,0,78155,29.583532,-97.948858,"(29.583532, -97.948858)"
TX2004cde_agencies.csv,2004,19449,TX1430000,Lavaca County Sheriff's Office,TX,2757,Lavaca,10427,12,77964,29.382578,-96.923633,"(29.382578, -96.923633)"
TX2004cde_agencies.csv,2004,19292,TX1050100,San Marcos Police Department,TX,2719,Hays,62919,0,78666,30.061225,-98.029267,"(30.061225, -98.029267)"
TX2004cde_agencies.csv,2004,19776,TX2300200,Gilmer Police Department,TX,2844,Upshur,5224,0,75644,32.735349,-94.941184,"(32.735349, -94.941184)"
TX2004cde_agencies.csv,2004,18823,TX0152000,Independent School District: Judson,TX,2629,Bexar,0,0,78109,29.448671,-98.520147,"(29.448671, -98.520147)"
TX2004cde_agencies.csv,2004,18876,TX0220100,Alpine Police Department,TX,2636,Brewster,5953,0,79830,29.808997,-103.252458,"(29.808997, -103.252458)"
TX2004cde_agencies.csv,2004,18966,TX0430900,Princeton Police Department,TX,2657,Collin,8495,0,75407,33.194745,-96.579846,"(33.194745, -96.579846)"
TX2004cde_agencies.csv,2004,19702,TX2200200,Azle Police Department,TX,2834,Tarrant,11673,0,76020,32.77204,-97.291291,"(32.77204, -97.291291)"
TX2004cde_agencies.csv,2004,19400,TX1261300,Godley Police Department,TX,2740,Johnson,1061,0,76044,32.379784,-97.364952,"(32.379784, -97.364952)"
TX2004cde_agencies.csv,2004,19401,TX1270000,Jones County Sheriff's Office,TX,2741,Jones,6352,0,79501,32.743709,-99.87443,"(32.743709, -99.87443)"
TX2004cde_agencies.csv,2004,19267,TX1015400,Houston Community College,TX,2715,Harris,0,0,77002,29.857273,-95.393037,"(29.857273, -95.393037)"
TX2004cde_agencies.csv,2004,19682,TX2121000,"University of Texas: Health Science Center, Tyler",TX,2826,Smith,0,0,75708,32.375106,-95.268743,"(32.375106, -95.268743)"
TX2004cde_agencies.csv,2004,19708,TX2200900,Euless Police Department,TX,2834,Tarrant,54188,0,76040,32.77204,-97.291291,"(32.77204, -97.291291)"
TX2004cde_agencies.csv,2004,19714,TX2201600,Hurst Police Department,TX,2834,Tarrant,39069,0,76054,32.77204,-97.291291,"(32.77204, -97.291291)"
TX2004cde_agencies.csv,2004,19515,TX1610100,Bay City Police Department,TX,2772,Matagorda,17305,0,77414,28.783341,-95.997755,"(28.783341, -95.997755)"
TX2004cde_agencies.csv,2004,19582,TX1800000,Oldham County Sheriff's Office,TX,2794,Oldham,2080,0,79092,35.401921,-102.59762,"(35.401921, -102.59762)"
TX2004cde_agencies.csv,2004,19525,TX1640000,Menard County Sheriff's Office,TX,2778,Menard,2131,0,76859,30.884058,-99.854623,"(30.884058, -99.854623)"
TX2004cde_agencies.csv,2004,18942,TX0370100,Jacksonville Police Department,TX,2651,Cherokee,14708,0,75766,31.843872,-95.156345,"(31.843872, -95.156345)"
TX2004cde_agencies.csv,2004,19162,TX0830100,Seagraves Police Department,TX,2697,Gaines,2752,0,79359,32.743942,-102.631561,"(32.743942, -102.631561)"
TX2004cde_agencies.csv,2004,19816,TX2420000,Wheeler County Sheriff's Office,TX,2856,Wheeler,3767,0,79096,35.392593,-100.253107,"(35.392593, -100.253107)"
TX2004cde_agencies.csv,2004,19059,TX0611000,Texas Woman's University,TX,2675,Denton,0,0,76204,33.205005,-97.119046,"(33.205005, -97.119046)"
TX2004cde_agencies.csv,2004,18916,TX0311000,Santa Rosa Police Department,TX,2645,Cameron,2898,0,78593,26.102923,-97.478958,"(26.102923, -97.478958)"
TX2004cde_agencies.csv,2004,18903,TX0300000,Callahan County Sheriff's Office,TX,2644,Callahan,8296,0,79504,32.29315,-99.372249,"(32.29315, -99.372249)"
TX2004cde_agencies.csv,2004,19210,TX0920600,White Oak Police Department,TX,2706,Gregg,6277,0,75693,32.486397,-94.816276,"(32.486397, -94.816276)"
TX2004cde_agencies.csv,2004,18998,TX0520100,Crane Police Department,TX,2666,Crane,3951,0,79731,31.422796,-102.487774,"(31.422796, -102.487774)"
TX2004cde_agencies.csv,2004,19330,TX1083200,Sullivan City Police Department,TX,2722,Hidalgo,4185,0,78595,26.396384,-98.18099,"(26.396384, -98.18099)"
TX2004cde_agencies.csv,2004,19432,TX1380200,Knox City Police Department,TX,2752,Knox,1192,0,79529,33.616657,-99.747112,"(33.616657, -99.747112)"
TX2004cde_agencies.csv,2004,19143,TX0790100,Missouri City Police Department,TX,2693,Fort Bend,72879,0,77459,29.526602,-95.771015,"(29.526602, -95.771015)"
TX2004cde_agencies.csv,2004,19054,TX0610200,Denton Police Department,TX,2675,Denton,131194,12,76205,33.205005,-97.119046,"(33.205005, -97.119046)"
TX2004cde_agencies.csv,2004,18848,TX0190600,Wake Village Police Department,TX,2633,Bowie,5466,0,75501,33.446051,-94.422375,"(33.446051, -94.422375)"
TX2004cde_agencies.csv,2004,19621,TX1920000,Reagan County Sheriff's Office,TX,2806,Reagan,3872,0,76932,31.372895,-101.513901,"(31.372895, -101.513901)"
TX2004cde_agencies.csv,2004,19149,TX0791100,Kendleton Police Department,TX,2693,Fort Bend,394,0,77451,29.526602,-95.771015,"(29.526602, -95.771015)"
TX2004cde_agencies.csv,2004,19300,TX1070200,Malakoff Police Department,TX,2721,Henderson,2308,0,75148,32.211633,-95.853418,"(32.211633, -95.853418)"
TX2004cde_agencies.csv,2004,19227,TX0980000,Hansford County Sheriff's Office,TX,2712,Hansford,2201,0,79081,36.272847,-101.35693,"(36.272847, -101.35693)"
TX2004cde_agencies.csv,2004,19271,TX1016000,Independent School District: Klein,TX,2715,Harris,0,0,77379,29.857273,-95.393037,"(29.857273, -95.393037)"
TX2004cde_agencies.csv,2004,19096,TX0680800,Independent School District: Ector County,TX,2682,Ector,0,0,79760,31.865301,-102.542507,"(31.865301, -102.542507)"
TX2004cde_agencies.csv,2004,18784,TX0110000,Bastrop County Sheriff's Office,TX,2625,Bastrop,59369,0,78602,30.100691,-97.310614,"(30.100691, -97.310614)"
TX2004cde_agencies.csv,2004,19535,TX1680100,Colorado City Police Department,TX,2782,Mitchell,4130,0,79512,32.303781,-100.92458,"(32.303781, -100.92458)"
TX2004cde_agencies.csv,2004,18759,TX0030100,Diboll Police Department,TX,2617,Angelina,5371,0,75941,31.251951,-94.611056,"(31.251951, -94.611056)"
TX2004cde_agencies.csv,2004,19832,TX2460100,Florence Police Department,TX,2860,Williamson,1239,0,76527,30.64903,-97.605069,"(30.64903, -97.605069)"
TX2004cde_agencies.csv,2004,19173,TX0841000,University of Texas: Medical Branch,TX,2698,Galveston,0,0,77555,29.228364,-94.895428,"(29.228364, -94.895428)"
TX2004cde_agencies.csv,2004,19386,TX1230700,Port Arthur Police Department,TX,2737,Jefferson,54557,0,77641,29.854,-94.149331,"(29.854, -94.149331)"
TX2004cde_agencies.csv,2004,19691,TX2150000,Stephens County Sheriff's Office,TX,2829,Stephens,3885,0,76424,32.736306,-98.836119,"(32.736306, -98.836119)"
TX2004cde_agencies.csv,2004,19126,TX0740000,Fannin County Sheriff's Office,TX,2688,Fannin,21135,0,75418,33.591161,-96.104988,"(33.591161, -96.104988)"
TX2004cde_agencies.csv,2004,19805,TX2390100,Brenham Police Department,TX,2853,Washington,16436,0,77834,30.215075,-96.410272,"(30.215075, -96.410272)"
TX2004cde_agencies.csv,2004,19164,TX0840000,Galveston County Sheriff's Office,TX,2698,Galveston,39877,0,77551,29.228364,-94.895428,"(29.228364, -94.895428)"
TX2004cde_agencies.csv,2004,19047,TX0580100,Lamesa Police Department,TX,2672,Dawson,9443,0,79331,32.741934,-101.947322,"(32.741934, -101.947322)"
TX2004cde_agencies.csv,2004,19073,TX0613900,Northlake Police Department,TX,2675,Denton,1934,0,76247,33.205005,-97.119046,"(33.205005, -97.119046)"
TX2004cde_agencies.csv,2004,19309,TX1080100,Alamo Police Department,TX,2722,Hidalgo,19385,0,78516,26.396384,-98.18099,"(26.396384, -98.18099)"
TX2004cde_agencies.csv,2004,19396,TX1260200,Burleson Police Department,TX,2740,Johnson,43150,0,76028,32.379784,-97.364952,"(32.379784, -97.364952)"
TX2004cde_agencies.csv,2004,18826,TX0152300,Somerset Police Department,TX,2629,Bexar,1779,0,78069,29.448671,-98.520147,"(29.448671, -98.520147)"
TX2004cde_agencies.csv,2004,19494,TX1550700,McGregor Police Department,TX,2775,Mclennan,5049,0,76657,31.549493,-97.201472,"(31.549493, -97.201472)"
TX2004cde_agencies.csv,2004,18801,TX0141100,Holland Police Department,TX,2628,Bell,1122,0,76534,31.042303,-97.481374,"(31.042303, -97.481374)"
TX2004cde_agencies.csv,2004,19678,TX2120400,Tyler Police Department,TX,2826,Smith,102481,12,75702,32.375106,-95.268743,"(32.375106, -95.268743)"
TX2004cde_agencies.csv,2004,19704,TX2200400,Benbrook Police Department,TX,2834,Tarrant,22708,0,76126,32.77204,-97.291291,"(32.77204, -97.291291)"
TX2004cde_agencies.csv,2004,19115,TX0711600,Socorro Police Department,TX,2684,El Paso,33110,0,79927,31.766403,-106.24139,"(31.766403, -106.24139)"
TX2004cde_agencies.csv,2004,19611,TX1880200,Amarillo College,TX,2802,Potter,0,0,79178,35.398675,-101.893804,"(35.398675, -101.893804)"
TX2004cde_agencies.csv,2004,19754,TX2260700,San Angelo Park Police Department,TX,2840,Tom Green,0,0,76902,31.401594,-100.461374,"(31.401594, -100.461374)"
TX2004cde_agencies.csv,2004,19381,TX1230100,Beaumont Police Department,TX,2737,Jefferson,117635,0,77704,29.854,-94.149331,"(29.854, -94.149331)"
TX2004cde_agencies.csv,2004,19468,TX1500000,Llano County Sheriff's Office,TX,2764,Llano,12833,0,78643,30.707584,-98.68469,"(30.707584, -98.68469)"
TX2004cde_agencies.csv,2004,18775,TX0070400,Jourdanton Police Department,TX,2621,Atascosa,4274,0,78026,28.891397,-98.535381,"(28.891397, -98.535381)"
TX2004cde_agencies.csv,2004,19476,TX1520400,Slaton Police Department,TX,2766,Lubbock,6054,0,79364,33.611469,-101.819944,"(33.611469, -101.819944)"
TX2004cde_agencies.csv,2004,19612,TX1880400,Texas State Technical College: Amarillo,TX,2802,Potter,0,0,79111,35.398675,-101.893804,"(35.398675, -101.893804)"
TX2004cde_agencies.csv,2004,19820,TX2430200,Electra Police Department,TX,2857,Wichita,2738,0,76360,33.991103,-98.716851,"(33.991103, -98.716851)"
TX2004cde_agencies.csv,2004,18905,TX0300300,Clyde Police Department,TX,2644,Callahan,3769,0,79510,32.29315,-99.372249,"(32.29315, -99.372249)"
TX2004cde_agencies.csv,2004,19434,TX1390000,Lamar County Sheriff's Office,TX,2754,Lamar,21446,0,75460,33.667263,-95.570348,"(33.667263, -95.570348)"
TX2004cde_agencies.csv,2004,19184,TX0870000,Glasscock County Sheriff's Office,TX,2701,Glasscock,1310,0,79739,31.868006,-101.521494,"(31.868006, -101.521494)"
TX2004cde_agencies.csv,2004,19627,TX1950000,Reeves County Sheriff's Office,TX,2809,Reeves,5198,0,79772,31.308366,-103.712706,"(31.308366, -103.712706)"
TX2004cde_agencies.csv,2004,19744,TX221119E,Abilene Christian University,TX,2835,Taylor,0,0,,,,"(, )"
TX2004cde_agencies.csv,2004,18821,TX0151700,"University of Texas: Health Science Center, San Antonio",TX,2629,Bexar,0,0,78229,29.448671,-98.520147,"(29.448671, -98.520147)"
TX2004cde_agencies.csv,2004,19334,TX1090200,Hubbard Police Department,TX,2723,Hill,1388,0,76648,31.982681,-97.130668,"(31.982681, -97.130668)"
TX2004cde_agencies.csv,2004,19514,TX1610000,Matagorda County Sheriff's Office,TX,2772,Matagorda,14605,0,77414,28.783341,-95.997755,"(28.783341, -95.997755)"
TX2004cde_agencies.csv,2004,19795,TX2360100,Huntsville Police Department,TX,2850,Walker,40866,8,77340,30.743163,-95.569825,"(30.743163, -95.569825)"
TX2004cde_agencies.csv,2004,19363,TX1161200,Lone Oak Police Department,TX,2730,Hunt,622,0,75453,33.123292,-96.084202,"(33.123292, -96.084202)"
TX2004cde_agencies.csv,2004,19664,TX2070000,Schleicher County Sheriff's Office,TX,2821,Schleicher,3091,0,76936,30.896233,-100.527216,"(30.896233, -100.527216)"
TX2004cde_agencies.csv,2004,18888,TX0270000,Burnet County Sheriff's Office,TX,2641,Burnet,24894,0,78611,30.78963,-98.201187,"(30.78963, -98.201187)"
TX2004cde_agencies.csv,2004,19426,TX1360000,Kinney County Sheriff's Office,TX,2750,Kinney,1882,0,78832,29.347086,-100.4177,"(29.347086, -100.4177)"
TX2004cde_agencies.csv,2004,19122,TX0730000,Falls County Sheriff's Office,TX,2687,Falls,9036,0,76661,31.25193,-96.934127,"(31.25193, -96.934127)"
TX2004cde_agencies.csv,2004,19773,TX2290100,Woodville Police Department,TX,2843,Tyler,2467,0,75979,30.769295,-94.375656,"(30.769295, -94.375656)"
TX2004cde_agencies.csv,2004,18787,TX0110300,Smithville Police Department,TX,2625,Bastrop,4050,0,78957,30.100691,-97.310614,"(30.100691, -97.310614)"
TX2004cde_agencies.csv,2004,19053,TX0610100,Argyle Police Department,TX,2675,Denton,3845,0,76226,33.205005,-97.119046,"(33.205005, -97.119046)"
TX2004cde_agencies.csv,2004,19589,TX1810800,Rose City Police Department,TX,2795,Orange,517,0,77662,30.120918,-93.893358,"(30.120918, -93.893358)"
TX2004cde_agencies.csv,2004,19017,TX0571000,Farmers Branch Police Department,TX,2671,Dallas,33626,0,75244,32.766987,-96.778424,"(32.766987, -96.778424)"
TX2004cde_agencies.csv,2004,19688,TX2140200,Rio Grande City Police Department,TX,2828,Starr,14323,0,78582,26.546335,-98.715803,"(26.546335, -98.715803)"
TX2004cde_agencies.csv,2004,18864,TX0201900,Brookside Village Police Department,TX,2634,Brazoria,1578,0,77581,29.167817,-95.434647,"(29.167817, -95.434647)"
TX2004cde_agencies.csv,2004,19603,TX1860000,Pecos County Sheriff's Office,TX,2800,Pecos,7492,0,79735,30.770894,-102.71986,"(30.770894, -102.71986)"
TX2004cde_agencies.csv,2004,19753,TX2260300,Angelo State University,TX,2840,Tom Green,0,0,76909,31.401594,-100.461374,"(31.401594, -100.461374)"
TX2004cde_agencies.csv,2004,19301,TX1070500,Seven Points Police Department,TX,2721,Henderson,1449,0,75143,32.211633,-95.853418,"(32.211633, -95.853418)"
TX2004cde_agencies.csv,2004,19084,TX0660100,Benavides Police Department,TX,2680,Duval,1325,0,78341,27.681123,-98.497393,"(27.681123, -98.497393)"
TX2004cde_agencies.csv,2004,19583,TX1810000,Orange County Sheriff's Office,TX,2795,Orange,40022,0,77631,30.120918,-93.893358,"(30.120918, -93.893358)"
TX2004cde_agencies.csv,2004,19481,TX1521300,Buffalo Springs Lake Police Department,TX,2766,Lubbock,454,0,79404,33.611469,-101.819944,"(33.611469, -101.819944)"
TX2004cde_agencies.csv,2004,19701,TX2200100,Arlington Police Department,TX,2834,Tarrant,387565,0,76011,32.77204,-97.291291,"(32.77204, -97.291291)"
TX2004cde_agencies.csv,2004,19269,TX1015800,Texas Medical Center,TX,2715,Harris,0,0,77030,29.857273,-95.393037,"(29.857273, -95.393037)"
TX2004cde_agencies.csv,2004,19044,TX0575900,St. Paul Medical Center,TX,2671,Dallas,0,0,78731,32.766987,-96.778424,"(32.766987, -96.778424)"
TX2004cde_agencies.csv,2004,19322,TX1081500,La Joya Police Department,TX,2722,Hidalgo,4275,0,78560,26.396384,-98.18099,"(26.396384, -98.18099)"
TX2004cde_agencies.csv,2004,18751,TX0000000,Department of Public Safety,TX,3665,,0,0,78773,30.239513,-97.69127,"(30.239513, -97.69127)"
TX2004cde_agencies.csv,2004,19316,TX1080800,McAllen Police Department,TX,2722,Hidalgo,140593,0,78505,26.396384,-98.18099,"(26.396384, -98.18099)"
TX2004cde_agencies.csv,2004,19142,TX0790000,Fort Bend County Sheriff's Office,TX,2693,Fort Bend,438341,0,77469,29.526602,-95.771015,"(29.526602, -95.771015)"
TX2004cde_agencies.csv,2004,19531,TX1660200,Rockdale Police Department,TX,2780,Milam,5555,0,76567,30.791242,-96.984395,"(30.791242, -96.984395)"
TX2004cde_agencies.csv,2004,19828,TX2450200,Raymondville Police Department,TX,2859,Willacy,11068,0,78580,26.481092,-97.584223,"(26.481092, -97.584223)"
TX2004cde_agencies.csv,2004,18815,TX0151100,Olmos Park Police Department,TX,2629,Bexar,2391,0,78212,29.448671,-98.520147,"(29.448671, -98.520147)"
TX2004cde_agencies.csv,2004,18932,TX0340300,Linden Police Department,TX,2648,Cass,1968,0,75563,33.083698,-94.357579,"(33.083698, -94.357579)"
TX2004cde_agencies.csv,2004,19175,TX0841900,Jamaica Beach Police Department,TX,2698,Galveston,1041,0,77554,29.228364,-94.895428,"(29.228364, -94.895428)"
TX2004cde_agencies.csv,2004,19703,TX2200300,Bedford Police Department,TX,2834,Tarrant,49377,12,76021,32.77204,-97.291291,"(32.77204, -97.291291)"
TX2004cde_agencies.csv,2004,19409,TX1290000,Kaufman County Sheriff's Office,TX,2743,Kaufman,67894,12,75142,32.598944,-96.288378,"(32.598944, -96.288378)"
TX2004cde_agencies.csv,2004,19505,TX1552600,Bruceville-Eddy Police Department,TX,2775,Mclennan,1502,0,76524,31.549493,-97.201472,"(31.549493, -97.201472)"
TX2004cde_agencies.csv,2004,18994,TX0500400,Fort Gates Police Department,TX,2664,Coryell,0,0,76528,31.391177,-97.798022,"(31.391177, -97.798022)"
TX2004cde_agencies.csv,2004,19218,TX0950000,Hale County Sheriff's Office,TX,2709,Hale,9366,0,79072,34.068436,-101.822888,"(34.068436, -101.822888)"
TX2004cde_agencies.csv,2004,19374,TX1200100,Edna Police Department,TX,2734,Jackson,5835,12,77957,28.959802,-96.58908,"(28.959802, -96.58908)"
TX2004cde_agencies.csv,2004,19262,TX1013300,Texas Southern University,TX,2715,Harris,0,0,77004,29.857273,-95.393037,"(29.857273, -95.393037)"
TX2004cde_agencies.csv,2004,19775,TX2300100,Big Sandy Police Department,TX,2844,Upshur,1376,0,75755,32.735349,-94.941184,"(32.735349, -94.941184)"
TX2004cde_agencies.csv,2004,19098,TX0700000,Ellis County Sheriff's Office,TX,2685,Ellis,62536,0,75165,32.347294,-96.798231,"(32.347294, -96.798231)"
TX2004cde_agencies.csv,2004,19186,TX0880500,Goliad Police Department,TX,2702,Goliad,2024,0,77963,28.6607,-97.430415,"(28.6607, -97.430415)"
TX2004cde_agencies.csv,2004,19843,TX2470000,Wilson County Sheriff's Office,TX,2861,Wilson,36638,0,78114,29.173883,-98.086734,"(29.173883, -98.086734)"
TX2004cde_agencies.csv,2004,19548,TX1701600,Oak Ridge North Police Department,TX,2784,Montgomery,3186,0,77385,30.299402,-95.504008,"(30.299402, -95.504008)"
TX2004cde_agencies.csv,2004,19457,TX1460100,Cleveland Police Department,TX,2760,Liberty,7761,0,77327,30.162189,-94.822682,"(30.162189, -94.822682)"
TX2004cde_agencies.csv,2004,19168,TX0840500,Hitchcock Police Department,TX,2698,Galveston,7558,0,77563,29.228364,-94.895428,"(29.228364, -94.895428)"
TX2004cde_agencies.csv,2004,18972,TX0440000,Collingsworth County Sheriff's Office,TX,2658,Collingsworth,3016,0,79095,34.963358,-100.272135,"(34.963358, -100.272135)"
TX2004cde_agencies.csv,2004,19647,TX2011100,Tatum Police Department,TX,2815,Rusk,1382,0,75691,32.109423,-94.756382,"(32.109423, -94.756382)"
TX2004cde_agencies.csv,2004,18894,TX0271200,Cottonwood Shores Police Department,TX,2641,Burnet,1140,0,78657,30.78963,-98.201187,"(30.78963, -98.201187)"
TX2004cde_agencies.csv,2004,19560,TX1720500,Naples Police Department,TX,2786,Morris,1361,0,75568,33.116466,-94.731265,"(33.116466, -94.731265)"
TX2004cde_agencies.csv,2004,19237,TX1000900,Lumberton Police Department,TX,2714,Hardin,12382,12,77657,30.329612,-94.393149,"(30.329612, -94.393149)"
TX2004cde_agencies.csv,2004,18883,TX0250200,Brownwood Police Department,TX,2639,Brown,18900,0,76801,31.764103,-98.99847,"(31.764103, -98.99847)"
TX2004cde_agencies.csv,2004,18834,TX0160000,Blanco County Sheriff's Office,TX,2630,Blanco,7101,0,78636,30.265605,-98.399977,"(30.265605, -98.399977)"
TX2004cde_agencies.csv,2004,18857,TX0200900,Manvel Police Department,TX,2634,Brazoria,7752,0,77578,29.167817,-95.434647,"(29.167817, -95.434647)"
TX2004cde_agencies.csv,2004,19549,TX1701700,Montgomery Police Department,TX,2784,Montgomery,733,0,77356,30.299402,-95.504008,"(30.299402, -95.504008)"
TX2004cde_agencies.csv,2004,19174,TX0841200,Texas A&M University: Galveston,TX,2698,Galveston,0,0,77553,29.228364,-94.895428,"(29.228364, -94.895428)"
TX2004cde_agencies.csv,2004,19632,TX1980000,Robertson County Sheriff's Office,TX,2812,Robertson,10053,0,77856,31.025481,-96.514941,"(31.025481, -96.514941)"
TX2004cde_agencies.csv,2004,18875,TX0220000,Brewster County Sheriff's Office,TX,2636,Brewster,3215,12,79830,29.808997,-103.252458,"(29.808997, -103.252458)"
TX2004cde_agencies.csv,2004,19557,TX1720100,Daingerfield Police Department,TX,2786,Morris,2486,0,75638,33.116466,-94.731265,"(33.116466, -94.731265)"
TX2004cde_agencies.csv,2004,19387,TX1230800,Port Neches Police Department,TX,2737,Jefferson,12690,4,77651,29.854,-94.149331,"(29.854, -94.149331)"
TX2004cde_agencies.csv,2004,19245,TX1011100,Jacinto City Police Department,TX,2715,Harris,10870,0,77029,29.857273,-95.393037,"(29.857273, -95.393037)"
TX2004cde_agencies.csv,2004,19353,TX1140000,Howard County Sheriff's Office,TX,2728,Howard,8376,0,79720,32.303471,-101.438772,"(32.303471, -101.438772)"
TX2004cde_agencies.csv,2004,18802,TX0141500,Independent School District: Killeen,TX,2628,Bell,0,0,76543,31.042303,-97.481374,"(31.042303, -97.481374)"
TX2004cde_agencies.csv,2004,19614,TX1890000,Presidio County Sheriff's Office,TX,2803,Presidio,2948,0,79843,30.005891,-104.261619,"(30.005891, -104.261619)"
TX2004cde_agencies.csv,2004,19431,TX1380000,Knox County Sheriff's Office,TX,2752,Knox,2550,0,79505,33.616657,-99.747112,"(33.616657, -99.747112)"
TX2004cde_agencies.csv,2004,19166,TX0840300,Friendswood Police Department,TX,2698,Galveston,38851,0,77546,29.228364,-94.895428,"(29.228364, -94.895428)"
TX2004cde_agencies.csv,2004,19507,TX1570000,Madison County Sheriff's Office,TX,2768,Madison,9258,0,77864,30.966878,-95.930372,"(30.966878, -95.930372)"
TX2004cde_agencies.csv,2004,19574,TX1780200,Corpus Christi Police Department,TX,2792,Nueces,324326,0,78469,27.738129,-97.518441,"(27.738129, -97.518441)"
TX2004cde_agencies.csv,2004,19518,TX1620000,Maverick County Sheriff's Office,TX,2773,Maverick,28975,0,78852,28.745217,-100.311368,"(28.745217, -100.311368)"
TX2004cde_agencies.csv,2004,19339,TX1100100,Levelland Police Department,TX,2724,Hockley,14071,0,79336,33.605932,-102.343398,"(33.605932, -102.343398)"
TX2004cde_agencies.csv,2004,18954,TX0420000,Coleman County Sheriff's Office,TX,2656,Coleman,2918,0,76834,31.914205,-99.346622,"(31.914205, -99.346622)"
TX2004cde_agencies.csv,2004,18937,TX0350200,Hart Police Department,TX,2649,Castro,1048,0,79043,34.533621,-102.258786,"(34.533621, -102.258786)"
TX2004cde_agencies.csv,2004,19246,TX1011200,Jersey Village Police Department,TX,2715,Harris,7975,0,77040,29.857273,-95.393037,"(29.857273, -95.393037)"
TX2004cde_agencies.csv,2004,19553,TX1710100,Dumas Police Department,TX,2785,Moore,14984,0,79029,35.835676,-101.890502,"(35.835676, -101.890502)"
TX2004cde_agencies.csv,2004,19781,TX2320000,Uvalde County Sheriff's Office,TX,2846,Uvalde,9059,0,78801,29.35034,-99.761074,"(29.35034, -99.761074)"
TX2004cde_agencies.csv,2004,18983,TX0470100,Comanche Police Department,TX,2661,Comanche,4218,0,76442,31.951645,-98.549617,"(31.951645, -98.549617)"
TX2004cde_agencies.csv,2004,19448,TX1420100,Cotulla Police Department,TX,2753,La Salle,4228,0,78014,28.351098,-99.096774,"(28.351098, -99.096774)"
TX2004cde_agencies.csv,2004,19808,TX2400100,Laredo Police Department,TX,2854,Webb,256280,0,78041,27.770584,-99.326641,"(27.770584, -99.326641)"
TX2004cde_agencies.csv,2004,19226,TX0970200,Hico Police Department,TX,2711,Hamilton,1319,0,76457,31.706982,-98.111794,"(31.706982, -98.111794)"
TX2004cde_agencies.csv,2004,19645,TX2010100,Henderson Police Department,TX,2815,Rusk,13574,12,75652,32.109423,-94.756382,"(32.109423, -94.756382)"
TX2004cde_agencies.csv,2004,18866,TX0202800,Surfside Beach Police Department,TX,2634,Brazoria,544,0,77541,29.167817,-95.434647,"(29.167817, -95.434647)"
TX2004cde_agencies.csv,2004,18993,TX0500200,Gatesville Police Department,TX,2664,Coryell,15901,4,76528,31.391177,-97.798022,"(31.391177, -97.798022)"
TX2004cde_agencies.csv,2004,19821,TX2430400,Iowa Park Police Department,TX,2857,Wichita,6395,12,76367,33.991103,-98.716851,"(33.991103, -98.716851)"
TX2004cde_agencies.csv,2004,19224,TX0970000,Hamilton County Sheriff's Office,TX,2711,Hamilton,3896,0,76531,31.706982,-98.111794,"(31.706982, -98.111794)"
TX2004cde_agencies.csv,2004,18920,TX0312200,Cameron County Park Rangers,TX,2645,Cameron,0,0,78597,26.102923,-97.478958,"(26.102923, -97.478958)"
TX2004cde_agencies.csv,2004,19575,TX1780300,Robstown Police Department,TX,2792,Nueces,11702,0,78380,27.738129,-97.518441,"(27.738129, -97.518441)"
TX2004cde_agencies.csv,2004,19134,TX0750900,Carmine Police Department,TX,2689,Fayette,256,0,78932,29.877886,-96.921231,"(29.877886, -96.921231)"
TX2004cde_agencies.csv,2004,19258,TX1012700,Katy Police Department,TX,2715,Harris,15969,12,77493,29.857273,-95.393037,"(29.857273, -95.393037)"
TX2004cde_agencies.csv,2004,19188,TX0890100,Gonzales Police Department,TX,2703,Gonzales,7517,0,78629,29.468704,-97.477738,"(29.468704, -97.477738)"
TX2004cde_agencies.csv,2004,19202,TX0911800,Grayson College,TX,2705,Grayson,0,0,75020,33.624508,-96.675699,"(33.624508, -96.675699)"
TX2004cde_agencies.csv,2004,19250,TX1011900,South Houston Police Department,TX,2715,Harris,17667,0,77587,29.857273,-95.393037,"(29.857273, -95.393037)"
TX2004cde_agencies.csv,2004,19734,TX2203700,Texas Christian University,TX,2834,Tarrant,0,0,76109,32.77204,-97.291291,"(32.77204, -97.291291)"
TX2004cde_agencies.csv,2004,18785,TX0110100,Bastrop Police Department,TX,2625,Bastrop,8019,0,78602,30.100691,-97.310614,"(30.100691, -97.310614)"
TX2004cde_agencies.csv,2004,18969,TX0431900,Parker Police Department,TX,2657,Collin,4387,0,75002,33.194745,-96.579846,"(33.194745, -96.579846)"
TX2004cde_agencies.csv,2004,19008,TX0570000,Dallas County Sheriff's Office,TX,2671,Dallas,19287,0,75207,32.766987,-96.778424,"(32.766987, -96.778424)"
TX2004cde_agencies.csv,2004,19388,TX1231000,Lamar University: Beaumont,TX,2737,Jefferson,0,0,77710,29.854,-94.149331,"(29.854, -94.149331)"
TX2004cde_agencies.csv,2004,19231,TX0990100,Chillicothe Police Department,TX,2713,Hardeman,665,0,79225,34.289904,-99.745697,"(34.289904, -99.745697)"
TX2004cde_agencies.csv,2004,18961,TX0430400,Frisco Police Department,TX,2657,Collin,152678,12,75034,33.194745,-96.579846,"(33.194745, -96.579846)"
TX2004cde_agencies.csv,2004,19061,TX0611200,Flower Mound Police Department,TX,2675,Denton,70894,12,75028,33.205005,-97.119046,"(33.205005, -97.119046)"
TX2004cde_agencies.csv,2004,19124,TX0730200,Marlin Police Department,TX,2687,Falls,5682,0,76661,31.25193,-96.934127,"(31.25193, -96.934127)"
TX2004cde_agencies.csv,2004,19652,TX2030100,San Augustine Police Department,TX,2817,San Augustine,2035,0,75972,31.382449,-94.16318,"(31.382449, -94.16318)"
TX2004cde_agencies.csv,2004,18996,TX0510100,Paducah Police Department,TX,2665,Cottle,1097,0,79248,34.091906,-100.276442,"(34.091906, -100.276442)"
TX2004cde_agencies.csv,2004,19709,TX2201000,Everman Police Department,TX,2834,Tarrant,6364,0,76140,32.77204,-97.291291,"(32.77204, -97.291291)"
TX2004cde_agencies.csv,2004,18791,TX0130100,Beeville Police Department,TX,2627,Bee,13414,0,78102,28.416077,-97.742586,"(28.416077, -97.742586)"
TX2004cde_agencies.csv,2004,19848,TX2480000,Winkler County Sheriff's Office,TX,2862,Winkler,528,0,79745,31.831415,-103.055986,"(31.831415, -103.055986)"
TX2004cde_agencies.csv,2004,18984,TX0470200,De Leon Police Department,TX,2661,Comanche,2155,0,76444,31.951645,-98.549617,"(31.951645, -98.549617)"
TX2004cde_agencies.csv,2004,19580,TX1790000,Ochiltree County Sheriff's Office,TX,2793,Ochiltree,1544,0,79070,36.278744,-100.815864,"(36.278744, -100.815864)"
TX2004cde_agencies.csv,2004,18990,TX0490800,Oak Ridge Police Department,TX,2663,Cooke,179,0,76240,33.639169,-97.210372,"(33.639169, -97.210372)"
TX2004cde_agencies.csv,2004,18949,TX0390000,Clay County Sheriff's Office,TX,2653,Clay,10303,0,76365,33.785904,-98.212917,"(33.785904, -98.212917)"
TX2004cde_agencies.csv,2004,19837,TX2460600,Taylor Police Department,TX,2860,Williamson,16770,0,76574,30.64903,-97.605069,"(30.64903, -97.605069)"
TX2004cde_agencies.csv,2004,19088,TX0670100,Cisco Police Department,TX,2681,Eastland,3746,0,76437,32.324645,-98.83656,"(32.324645, -98.83656)"
TX2004cde_agencies.csv,2004,18957,TX0430000,Collin County Sheriff's Office,TX,2657,Collin,53505,12,75071,33.194745,-96.579846,"(33.194745, -96.579846)"
TX2004cde_agencies.csv,2004,19571,TX1770300,Sweetwater Police Department,TX,2791,Nolan,10777,0,79556,32.312338,-100.418108,"(32.312338, -100.418108)"
TX2004cde_agencies.csv,2004,19289,TX1040100,Haskell Police Department,TX,2718,Haskell,3230,0,79521,33.175965,-99.730773,"(33.175965, -99.730773)"
TX2004cde_agencies.csv,2004,19290,TX1040200,Rule Police Department,TX,2718,Haskell,621,0,79547,33.175965,-99.730773,"(33.175965, -99.730773)"
TX2004cde_agencies.csv,2004,18892,TX0270700,Granite Shoals Police Department,TX,2641,Burnet,5018,0,78654,30.78963,-98.201187,"(30.78963, -98.201187)"
TX2004cde_agencies.csv,2004,19254,TX1012300,Tomball Police Department,TX,2715,Harris,11435,12,77375,29.857273,-95.393037,"(29.857273, -95.393037)"
TX2004cde_agencies.csv,2004,18878,TX0230000,Briscoe County Sheriff's Office,TX,2637,Briscoe,1518,0,79257,34.525172,-101.205893,"(34.525172, -101.205893)"
TX2004cde_agencies.csv,2004,19187,TX0890000,Gonzales County Sheriff's Office,TX,2703,Gonzales,9573,0,78629,29.468704,-97.477738,"(29.468704, -97.477738)"
TX2004cde_agencies.csv,2004,19794,TX2360000,Walker County Sheriff's Office,TX,2850,Walker,29475,0,77320,30.743163,-95.569825,"(30.743163, -95.569825)"
TX2004cde_agencies.csv,2004,19765,TX2272200,Jonestown Police Department,TX,2841,Travis,2068,0,78645,30.239513,-97.69127,"(30.239513, -97.69127)"
TX2004cde_agencies.csv,2004,19407,TX1280100,Karnes City Police Department,TX,2742,Karnes,3382,0,78118,28.907618,-97.860767,"(28.907618, -97.860767)"
TX2004cde_agencies.csv,2004,19461,TX1470000,Limestone County Sheriff's Office,TX,2761,Limestone,11759,0,76642,31.547543,-96.593623,"(31.547543, -96.593623)"
TX2004cde_agencies.csv,2004,19001,TX0540100,Crosbyton Police Department,TX,2668,Crosby,1670,9,79322,33.609144,-101.29871,"(33.609144, -101.29871)"
TX2004cde_agencies.csv,2004,19466,TX1490000,Live Oak County Sheriff's Office,TX,2763,Live Oak,7660,0,78022,28.351535,-98.126961,"(28.351535, -98.126961)"
TX2004cde_agencies.csv,2004,18950,TX0390100,Henrietta Police Department,TX,2653,Clay,2987,0,76365,33.785904,-98.212917,"(33.785904, -98.212917)"
TX2004cde_agencies.csv,2004,19228,TX0980100,Gruver Police Department,TX,2712,Hansford,1160,0,79040,36.272847,-101.35693,"(36.272847, -101.35693)"
TX2004cde_agencies.csv,2004,19318,TX1081000,Mission Police Department,TX,2722,Hidalgo,83552,0,78572,26.396384,-98.18099,"(26.396384, -98.18099)"
TX2004cde_agencies.csv,2004,19626,TX1940300,Bogata Police Department,TX,2808,Red River,1105,0,75417,33.619625,-95.048429,"(33.619625, -95.048429)"
TX2004cde_agencies.csv,2004,19710,TX2201100,Forest Hill Police Department,TX,2834,Tarrant,12901,0,76140,32.77204,-97.291291,"(32.77204, -97.291291)"
TX2004cde_agencies.csv,2004,19422,TX1330500,Ingram Police Department,TX,2747,Kerr,1821,0,78025,30.059953,-99.353339,"(30.059953, -99.353339)"
TX2004cde_agencies.csv,2004,18941,TX0370000,Cherokee County Sheriff's Office,TX,2651,Cherokee,30477,0,75785,31.843872,-95.156345,"(31.843872, -95.156345)"
TX2004cde_agencies.csv,2004,18796,TX0140400,Killeen Police Department,TX,2628,Bell,140497,0,76541,31.042303,-97.481374,"(31.042303, -97.481374)"
TX2004cde_agencies.csv,2004,18962,TX0430500,McKinney Police Department,TX,2657,Collin,163406,12,75071,33.194745,-96.579846,"(33.194745, -96.579846)"
TX2004cde_agencies.csv,2004,19490,TX1550200,Beverly Hills Police Department,TX,2775,Mclennan,2044,0,76711,31.549493,-97.201472,"(31.549493, -97.201472)"
TX2004cde_agencies.csv,2004,19717,TX2201900,Lake Worth Police Department,TX,2834,Tarrant,4761,0,76135,32.77204,-97.291291,"(32.77204, -97.291291)"
TX2004cde_agencies.csv,2004,18991,TX0500000,Coryell County Sheriff's Office,TX,2664,Coryell,27345,0,76528,31.391177,-97.798022,"(31.391177, -97.798022)"
TX2004cde_agencies.csv,2004,19235,TX1000200,Silsbee Police Department,TX,2714,Hardin,6699,0,77656,30.329612,-94.393149,"(30.329612, -94.393149)"
TX2004cde_agencies.csv,2004,19197,TX0910400,Sherman Police Department,TX,2705,Grayson,40338,0,75090,33.624508,-96.675699,"(33.624508, -96.675699)"
TX2004cde_agencies.csv,2004,19813,TX2410000,Wharton County Sheriff's Office,TX,2855,Wharton,21033,12,77488,29.27848,-96.229674,"(29.27848, -96.229674)"
TX2004cde_agencies.csv,2004,19233,TX1000000,Hardin County Sheriff's Office,TX,2714,Hardin,33000,0,77625,30.329612,-94.393149,"(30.329612, -94.393149)"
TX2004cde_agencies.csv,2004,19785,TX2330100,Del Rio Police Department,TX,2847,Val Verde,36091,0,78840,29.884961,-101.146646,"(29.884961, -101.146646)"
TX2004cde_agencies.csv,2004,19576,TX1780500,Port Aransas Police Department,TX,2792,Nueces,3978,0,78373,27.738129,-97.518441,"(27.738129, -97.518441)"
TX2004cde_agencies.csv,2004,18752,TX0010000,Anderson County Sheriff's Office,TX,2615,Anderson,38087,0,75801,31.841266,-95.661744,"(31.841266, -95.661744)"
TX2004cde_agencies.csv,2004,19304,TX1070900,Caney City Police Department,TX,2721,Henderson,217,0,75148,32.211633,-95.853418,"(32.211633, -95.853418)"
TX2004cde_agencies.csv,2004,19078,TX0630100,Spur Police Department,TX,2677,Dickens,1185,0,79370,33.614666,-100.786095,"(33.614666, -100.786095)"
TX2004cde_agencies.csv,2004,19276,TX1017000,Independent School District: Spring Branch,TX,2715,Harris,0,0,77024,29.857273,-95.393037,"(29.857273, -95.393037)"
TX2004cde_agencies.csv,2004,19435,TX1390200,Paris Police Department,TX,2754,Lamar,24823,0,75460,33.667263,-95.570348,"(33.667263, -95.570348)"
TX2004cde_agencies.csv,2004,18783,TX0100000,Bandera County Sheriff's Office,TX,2624,Bandera,21024,0,78003,29.755681,-99.26059,"(29.755681, -99.26059)"
TX2004cde_agencies.csv,2004,19320,TX1081300,San Juan Police Department,TX,2722,Hidalgo,36719,2,78589,26.396384,-98.18099,"(26.396384, -98.18099)"
TX2004cde_agencies.csv,2004,18758,TX0030000,Angelina County Sheriff's Office,TX,2617,Angelina,39494,0,75901,31.251951,-94.611056,"(31.251951, -94.611056)"
TX2004cde_agencies.csv,2004,19685,TX2130000,Somervell County Sheriff's Office,TX,2827,Somervell,8760,0,76043,32.217942,-97.769211,"(32.217942, -97.769211)"
TX2004cde_agencies.csv,2004,19454,TX1440200,Lexington Police Department,TX,2758,Lee,1168,0,78947,30.321105,-96.976365,"(30.321105, -96.976365)"
TX2004cde_agencies.csv,2004,19807,TX2400000,Webb County Sheriff's Office,TX,2854,Webb,10105,0,78042,27.770584,-99.326641,"(27.770584, -99.326641)"
TX2004cde_agencies.csv,2004,19489,TX1550100,Bellmead Police Department,TX,2775,Mclennan,10249,0,76705,31.549493,-97.201472,"(31.549493, -97.201472)"
TX2004cde_agencies.csv,2004,19681,TX2120900,University of Texas: Tyler,TX,2826,Smith,0,0,75708,32.375106,-95.268743,"(32.375106, -95.268743)"
TX2004cde_agencies.csv,2004,19475,TX1520300,Shallowater Police Department,TX,2766,Lubbock,2548,0,79363,33.611469,-101.819944,"(33.611469, -101.819944)"
TX2004cde_agencies.csv,2004,19799,TX2370700,Hempstead Police Department,TX,2851,Waller,6941,0,77445,30.013578,-95.982102,"(30.013578, -95.982102)"
TX2004cde_agencies.csv,2004,19689,TX2140300,Roma Police Department,TX,2828,Starr,10162,1,78584,26.546335,-98.715803,"(26.546335, -98.715803)"
TX2004cde_agencies.csv,2004,18921,TX0312400,Independent School District: Brownsville,TX,2645,Cameron,0,0,78521,26.102923,-97.478958,"(26.102923, -97.478958)"
TX2004cde_agencies.csv,2004,18869,TX0203200,Independent School District: Alvin,TX,2634,Brazoria,0,0,77511,29.167817,-95.434647,"(29.167817, -95.434647)"
TX2004cde_agencies.csv,2004,19428,TX1370000,Kleberg County Sheriff's Office,TX,2751,Kleberg,5683,0,78364,27.438735,-97.66062,"(27.438735, -97.66062)"
TX2004cde_agencies.csv,2004,18859,TX0201100,Richwood Police Department,TX,2634,Brazoria,3816,0,77531,29.167817,-95.434647,"(29.167817, -95.434647)"
TX2004cde_agencies.csv,2004,19638,TX1990200,Royse City Police Department,TX,2813,Rockwall,11110,12,75189,32.898054,-96.404396,"(32.898054, -96.404396)"
TX2004cde_agencies.csv,2004,19034,TX0573300,Rowlett Police Department,TX,2671,Dallas,58933,12,75030,32.766987,-96.778424,"(32.766987, -96.778424)"
TX2004cde_agencies.csv,2004,19513,TX1600000,Mason County Sheriff's Office,TX,2771,Mason,4095,0,76856,30.703232,-99.237608,"(30.703232, -99.237608)"
TX2004cde_agencies.csv,2004,19273,TX1016600,Lakeview Police Department,TX,2715,Harris,6468,0,77586,29.857273,-95.393037,"(29.857273, -95.393037)"
TX2004cde_agencies.csv,2004,19544,TX1701000,Magnolia Police Department,TX,2784,Montgomery,1728,0,77353,30.299402,-95.504008,"(30.299402, -95.504008)"
TX2004cde_agencies.csv,2004,18978,TX0460000,Comal County Sheriff's Office,TX,2660,Comal,60993,0,78130,29.806091,-98.260554,"(29.806091, -98.260554)"
TX2004cde_agencies.csv,2004,18930,TX0340100,Atlanta Police Department,TX,2648,Cass,5579,0,75551,33.083698,-94.357579,"(33.083698, -94.357579)"
TX2004cde_agencies.csv,2004,19587,TX1810400,Vidor Police Department,TX,2795,Orange,10971,0,77662,30.120918,-93.893358,"(30.120918, -93.893358)"
TX2004cde_agencies.csv,2004,19622,TX1920100,Big Lake Police Department,TX,2806,Reagan,3373,0,76932,31.372895,-101.513901,"(31.372895, -101.513901)"
TX2004cde_agencies.csv,2004,19127,TX0740100,Bonham Police Department,TX,2688,Fannin,10042,0,75418,33.591161,-96.104988,"(33.591161, -96.104988)"
TX2004cde_agencies.csv,2004,18939,TX0360700,Mont Belvieu Police Department,TX,2650,Chambers,5098,0,77580,29.703933,-94.668875,"(29.703933, -94.668875)"
TX2004cde_agencies.csv,2004,19839,TX2460900,Cedar Park Police Department,TX,2860,Williamson,66724,0,78613,30.64903,-97.605069,"(30.64903, -97.605069)"
TX2004cde_agencies.csv,2004,19195,TX0910200,Denison Police Department,TX,2705,Grayson,22952,0,75020,33.624508,-96.675699,"(33.624508, -96.675699)"
TX2004cde_agencies.csv,2004,19857,TX2500300,Mineola Police Department,TX,2864,Wood,4578,0,75773,32.783588,-95.382166,"(32.783588, -95.382166)"
TX2004cde_agencies.csv,2004,18975,TX0450100,Columbus Police Department,TX,2659,Colorado,3655,0,78934,29.595991,-96.508433,"(29.595991, -96.508433)"
TX2004cde_agencies.csv,2004,19261,TX1013200,University of Houston: Central Campus,TX,2715,Harris,0,0,77204,29.857273,-95.393037,"(29.857273, -95.393037)"
TX2004cde_agencies.csv,2004,19019,TX0571200,Grand Prairie Police Department,TX,2671,Dallas,187901,0,75051,32.766987,-96.778424,"(32.766987, -96.778424)"
TX2004cde_agencies.csv,2004,19699,TX2190300,Tulia Police Department,TX,2833,Swisher,4743,0,79088,34.53046,-101.732852,"(34.53046, -101.732852)"
TX2004cde_agencies.csv,2004,19375,TX1200200,Ganado Police Department,TX,2734,Jackson,2105,0,77962,28.959802,-96.58908,"(28.959802, -96.58908)"
TX2004cde_agencies.csv,2004,19774,TX2300000,Upshur County Sheriff's Office,TX,2844,Upshur,29570,0,75644,32.735349,-94.941184,"(32.735349, -94.941184)"
TX2004cde_agencies.csv,2004,18881,TX0250000,Brown County Sheriff's Office,TX,2639,Brown,14366,0,76801,31.764103,-98.99847,"(31.764103, -98.99847)"
TX2004cde_agencies.csv,2004,19204,TX0912100,Tioga Police Department,TX,2705,Grayson,830,0,76271,33.624508,-96.675699,"(33.624508, -96.675699)"
TX2004cde_agencies.csv,2004,19657,TX2050300,Portland Police Department,TX,2819,San Patricio,16140,12,78374,28.011786,-97.517162,"(28.011786, -97.517162)"
TX2004cde_agencies.csv,2004,19455,TX1450000,Leon County Sheriff's Office,TX,2759,Leon,15138,0,75833,31.300493,-95.995622,"(31.300493, -95.995622)"
TX2004cde_agencies.csv,2004,19055,TX0610500,Lake Dallas Police Department,TX,2675,Denton,7505,0,75065,33.205005,-97.119046,"(33.205005, -97.119046)"
TX2004cde_agencies.csv,2004,19814,TX2410100,El Campo Police Department,TX,2855,Wharton,11570,0,77437,29.27848,-96.229674,"(29.27848, -96.229674)"
TX2004cde_agencies.csv,2004,19858,TX2500400,Quitman Police Department,TX,2864,Wood,1816,0,75783,32.783588,-95.382166,"(32.783588, -95.382166)"
TX2004cde_agencies.csv,2004,18846,TX0190400,New Boston Police Department,TX,2633,Bowie,4737,0,75570,33.446051,-94.422375,"(33.446051, -94.422375)"
TX2004cde_agencies.csv,2004,19412,TX1290300,Kemp Police Department,TX,2743,Kaufman,1228,0,75143,32.598944,-96.288378,"(32.598944, -96.288378)"
TX2004cde_agencies.csv,2004,19252,TX1012100,Spring Valley Police Department,TX,2715,Harris,4251,0,77055,29.857273,-95.393037,"(29.857273, -95.393037)"
TX2004cde_agencies.csv,2004,19493,TX1550600,Lorena Police Department,TX,2775,Mclennan,1742,0,76655,31.549493,-97.201472,"(31.549493, -97.201472)"
TX2004cde_agencies.csv,2004,19028,TX0572200,Seagoville Police Department,TX,2671,Dallas,15917,0,75159,32.766987,-96.778424,"(32.766987, -96.778424)"
TX2004cde_agencies.csv,2004,18777,TX0080100,Bellville Police Department,TX,2622,Austin,4235,0,77418,29.891901,-96.27017,"(29.891901, -96.27017)"
TX2004cde_agencies.csv,2004,19721,TX2202300,River Oaks Police Department,TX,2834,Tarrant,7730,0,76114,32.77204,-97.291291,"(32.77204, -97.291291)"
TX2004cde_agencies.csv,2004,18817,TX0151300,Terrell Hills Police Department,TX,2629,Bexar,5296,0,78209,29.448671,-98.520147,"(29.448671, -98.520147)"
TX2004cde_agencies.csv,2004,19827,TX2450100,Lyford Police Department,TX,2859,Willacy,2582,12,78569,26.481092,-97.584223,"(26.481092, -97.584223)"
TX2004cde_agencies.csv,2004,19596,TX1840300,Springtown Police Department,TX,2798,Parker,2780,0,76082,32.777096,-97.805905,"(32.777096, -97.805905)"
TX2004cde_agencies.csv,2004,18909,TX0310300,Harlingen Police Department,TX,2645,Cameron,66122,0,78550,26.102923,-97.478958,"(26.102923, -97.478958)"
TX2004cde_agencies.csv,2004,19859,TX2500500,Winnsboro Police Department,TX,2864,Wood,3325,0,75494,32.783588,-95.382166,"(32.783588, -95.382166)"
TX2004cde_agencies.csv,2004,19104,TX0700700,Palmer Police Department,TX,2685,Ellis,2043,0,75152,32.347294,-96.798231,"(32.347294, -96.798231)"
TX2004cde_agencies.csv,2004,19871,TXSPD0000,San Antonio Police Department,TX,2629,Bexar,1463586,0,78207,29.448671,-98.520147,"(29.448671, -98.520147)"
TX2004cde_agencies.csv,2004,19522,TX1630200,Devine Police Department,TX,2777,Medina,4636,0,78016,29.353661,-99.111085,"(29.353661, -99.111085)"
TX2004cde_agencies.csv,2004,19460,TX1460700,Ames Police Department,TX,2760,Liberty,1048,0,77575,30.162189,-94.822682,"(30.162189, -94.822682)"
TX2004cde_agencies.csv,2004,19105,TX0700800,Red Oak Police Department,TX,2685,Ellis,11751,0,75154,32.347294,-96.798231,"(32.347294, -96.798231)"
TX2004cde_agencies.csv,2004,19665,TX2080000,Scurry County Sheriff's Office,TX,2822,Scurry,5802,0,79549,32.744462,-100.913399,"(32.744462, -100.913399)"
TX2004cde_agencies.csv,2004,19453,TX1440100,Giddings Police Department,TX,2758,Lee,5084,0,78942,30.321105,-96.976365,"(30.321105, -96.976365)"
TX2004cde_agencies.csv,2004,18874,TX0210400,Texas A&M University: College Station,TX,2635,Brazos,0,0,77843,30.656725,-96.302389,"(30.656725, -96.302389)"
TX2004cde_agencies.csv,2004,19597,TX1840400,Hudson Oaks Police Department,TX,2798,Parker,2054,0,76087,32.777096,-97.805905,"(32.777096, -97.805905)"
TX2004cde_agencies.csv,2004,19464,TX1471100,Independent School District: Mexia,TX,2761,Limestone,0,0,76667,31.547543,-96.593623,"(31.547543, -96.593623)"
TX2004cde_agencies.csv,2004,18900,TX0290100,Point Comfort Police Department,TX,2643,Calhoun,723,0,77978,28.445366,-96.5833,"(28.445366, -96.5833)"
TX2004cde_agencies.csv,2004,19696,TX2180100,Sonora Police Department,TX,2832,Sutton,2891,0,76950,30.517865,-100.505395,"(30.517865, -100.505395)"
TX2004cde_agencies.csv,2004,19351,TX1130100,Crockett Police Department,TX,2727,Houston,6474,0,75835,31.323036,-95.4216,"(31.323036, -95.4216)"
TX2004cde_agencies.csv,2004,18997,TX0520000,Crane County Sheriff's Office,TX,2666,Crane,1166,0,79731,31.422796,-102.487774,"(31.422796, -102.487774)"
TX2004cde_agencies.csv,2004,18987,TX0490000,Cooke County Sheriff's Office,TX,2663,Cooke,21867,0,76240,33.639169,-97.210372,"(33.639169, -97.210372)"
TX2004cde_agencies.csv,2004,18926,TX0320100,Pittsburg Police Department,TX,2646,Camp,4600,0,75686,32.974581,-94.979085,"(32.974581, -94.979085)"
TX2004cde_agencies.csv,2004,19121,TX0720400,Tarleton State University,TX,2686,Erath,0,0,76402,32.238136,-98.222377,"(32.238136, -98.222377)"
TX2004cde_agencies.csv,2004,18887,TX0260200,Somerville Police Department,TX,2640,Burleson,1365,0,77879,30.493487,-96.622091,"(30.493487, -96.622091)"
TX2004cde_agencies.csv,2004,19500,TX1551400,Woodway Police Department,TX,2775,Mclennan,8829,12,76712,31.549493,-97.201472,"(31.549493, -97.201472)"
TX2004cde_agencies.csv,2004,19863,TX2520100,Graham Police Department,TX,2866,Young,8856,2,76450,33.158787,-98.678267,"(33.158787, -98.678267)"
TX2004cde_agencies.csv,2004,18927,TX0330000,Carson County Sheriff's Office,TX,2647,Carson,3655,0,79068,35.405496,-101.355356,"(35.405496, -101.355356)"
TX2004cde_agencies.csv,2004,18767,TX0050000,Archer County Sheriff's Office,TX,2619,Archer,5281,0,76351,33.616305,-98.687267,"(33.616305, -98.687267)"
TX2004cde_agencies.csv,2004,18769,TX0050200,Holliday Police Department,TX,2619,Archer,1718,0,76366,33.616305,-98.687267,"(33.616305, -98.687267)"
TX2004cde_agencies.csv,2004,18792,TX0140000,Bell County Sheriff's Office,TX,2628,Bell,58377,0,76513,31.042303,-97.481374,"(31.042303, -97.481374)"
TX2004cde_agencies.csv,2004,19649,TX2020100,Hemphill Police Department,TX,2816,Sabine,1184,0,75948,31.3433,-93.851913,"(31.3433, -93.851913)"
TX2004cde_agencies.csv,2004,19283,TX1020100,Hallsville Police Department,TX,2716,Harrison,3986,0,75650,32.547991,-94.374434,"(32.547991, -94.374434)"
TX2004cde_agencies.csv,2004,19011,TX0570400,Carrollton Police Department,TX,2675,Denton,130676,0,75006,32.766987,-96.778424,"(32.766987, -96.778424)"
TX2004cde_agencies.csv,2004,18910,TX0310400,La Feria Police Department,TX,2645,Cameron,7315,0,78559,26.102923,-97.478958,"(26.102923, -97.478958)"
TX2004cde_agencies.csv,2004,19133,TX0750800,Flatonia Police Department,TX,2689,Fayette,1387,0,78941,29.877886,-96.921231,"(29.877886, -96.921231)"
TX2004cde_agencies.csv,2004,19670,TX2100000,Shelby County Sheriff's Office,TX,2824,Shelby,19193,0,75935,31.790137,-94.142565,"(31.790137, -94.142565)"
TX2004cde_agencies.csv,2004,18936,TX0350100,Dimmitt Police Department,TX,2649,Castro,4226,0,79027,34.533621,-102.258786,"(34.533621, -102.258786)"
TX2004cde_agencies.csv,2004,19569,TX1770000,Nolan County Sheriff's Office,TX,2791,Nolan,2992,0,79556,32.312338,-100.418108,"(32.312338, -100.418108)"
TX2004cde_agencies.csv,2004,19253,TX1012200,Taylor Lake Village Police Department,TX,2715,Harris,3678,0,77586,29.857273,-95.393037,"(29.857273, -95.393037)"
TX2004cde_agencies.csv,2004,19707,TX2200700,Dalworthington Gardens Police Department,TX,2834,Tarrant,2378,0,76016,32.77204,-97.291291,"(32.77204, -97.291291)"
TX2004cde_agencies.csv,2004,19624,TX1940000,Red River County Sheriff's Office,TX,2808,Red River,8117,0,75426,33.619625,-95.048429,"(33.619625, -95.048429)"
TX2004cde_agencies.csv,2004,19303,TX1070800,Berryville Police Department,TX,2721,Henderson,1025,0,75763,32.211633,-95.853418,"(32.211633, -95.853418)"
TX2004cde_agencies.csv,2004,19296,TX1060000,Hemphill County Sheriff's Office,TX,2720,Hemphill,4291,0,79014,35.816237,-100.284807,"(35.816237, -100.284807)"
TX2004cde_agencies.csv,2004,18800,TX0141000,Morgans Point Resort Police Department,TX,2628,Bell,4214,0,76513,31.042303,-97.481374,"(31.042303, -97.481374)"
TX2004cde_agencies.csv,2004,19013,TX0570600,Cockrell Hill Police Department,TX,2671,Dallas,4334,0,75211,32.766987,-96.778424,"(32.766987, -96.778424)"
TX2004cde_agencies.csv,2004,19530,TX1660100,Cameron Police Department,TX,2780,Milam,5363,0,76520,30.791242,-96.984395,"(30.791242, -96.984395)"
TX2004cde_agencies.csv,2004,19545,TX1701200,Shenandoah Police Department,TX,2784,Montgomery,2811,0,77381,30.299402,-95.504008,"(30.299402, -95.504008)"
TX2004cde_agencies.csv,2004,19108,TX0710100,Anthony Police Department,TX,2684,El Paso,5524,0,79821,31.766403,-106.24139,"(31.766403, -106.24139)"
TX2004cde_agencies.csv,2004,19542,TX1700700,Roman Forest Police Department,TX,2784,Montgomery,1882,0,77357,30.299402,-95.504008,"(30.299402, -95.504008)"
TX2004cde_agencies.csv,2004,19302,TX1070700,Gun Barrel City Police Department,TX,2721,Henderson,6027,0,75147,32.211633,-95.853418,"(32.211633, -95.853418)"
TX2004cde_agencies.csv,2004,19592,TX1830000,Panola County Sheriff's Office,TX,2797,Panola,16719,0,75633,32.163978,-94.305156,"(32.163978, -94.305156)"
TX2004cde_agencies.csv,2004,19076,TX0620300,Yorktown Police Department,TX,2676,Dewitt,2144,0,78164,29.082346,-97.361654,"(29.082346, -97.361654)"
TX2004cde_agencies.csv,2004,18824,TX0152100,Alamo Community College District,TX,2629,Bexar,0,0,78204,29.448671,-98.520147,"(29.448671, -98.520147)"
TX2004cde_agencies.csv,2004,19136,TX0760100,Rotan Police Department,TX,2690,Fisher,1430,0,79546,32.740473,-100.40312,"(32.740473, -100.40312)"
TX2004cde_agencies.csv,2004,19598,TX1840500,Willow Park Police Department,TX,2798,Parker,4942,0,76087,32.777096,-97.805905,"(32.777096, -97.805905)"
TX2004cde_agencies.csv,2004,19110,TX0710400,University of Texas: El Paso,TX,2684,El Paso,0,0,79968,31.766403,-106.24139,"(31.766403, -106.24139)"
TX2004cde_agencies.csv,2004,19648,TX2020000,Sabine County Sheriff's Office,TX,2816,Sabine,8258,0,75948,31.3433,-93.851913,"(31.3433, -93.851913)"
TX2004cde_agencies.csv,2004,19172,TX0840900,Texas City Police Department,TX,2698,Galveston,46976,0,77590,29.228364,-94.895428,"(29.228364, -94.895428)"
TX2004cde_agencies.csv,2004,19519,TX1620100,Eagle Pass Police Department,TX,2773,Maverick,28823,0,78852,28.745217,-100.311368,"(28.745217, -100.311368)"
TX2004cde_agencies.csv,2004,19619,TX1910100,Canyon Police Department,TX,2805,Randall,14712,4,79015,34.962529,-101.895547,"(34.962529, -101.895547)"
TX2004cde_agencies.csv,2004,19294,TX1050700,Kyle Police Department,TX,2719,Hays,34092,0,78640,30.061225,-98.029267,"(30.061225, -98.029267)"
TX2004cde_agencies.csv,2004,19737,TX2204900,University of North Texas: Health Science Center,TX,2834,Tarrant,0,0,76107,32.77204,-97.291291,"(32.77204, -97.291291)"
TX2004cde_agencies.csv,2004,19568,TX1760000,Newton County Sheriff's Office,TX,2790,Newton,14095,0,75966,30.786718,-93.73925,"(30.786718, -93.73925)"
TX2004cde_agencies.csv,2004,19790,TX2340400,Van Police Department,TX,2848,Van Zandt,2672,0,75790,32.558948,-95.836391,"(32.558948, -95.836391)"
TX2004cde_agencies.csv,2004,19823,TX2430700,Midwestern State University,TX,2857,Wichita,0,0,76308,33.991103,-98.716851,"(33.991103, -98.716851)"
TX2004cde_agencies.csv,2004,19537,TX1690100,Bowie Police Department,TX,2783,Montague,5137,0,76230,33.678356,-97.725014,"(33.678356, -97.725014)"
TX2004cde_agencies.csv,2004,18925,TX0320000,Camp County Sheriff's Office,TX,2646,Camp,8104,0,75686,32.974581,-94.979085,"(32.974581, -94.979085)"
TX2004cde_agencies.csv,2004,19700,TX2200000,Tarrant County Sheriff's Office,TX,2834,Tarrant,60680,0,76102,32.77204,-97.291291,"(32.77204, -97.291291)"
TX2004cde_agencies.csv,2004,19287,TX1030000,Hartley County Sheriff's Office,TX,2717,Hartley,3334,0,79018,35.840244,-102.610047,"(35.840244, -102.610047)"
TX2004cde_agencies.csv,2004,18795,TX0140300,Harker Heights Police Department,TX,2628,Bell,28935,0,76548,31.042303,-97.481374,"(31.042303, -97.481374)"
TX2004cde_agencies.csv,2004,19120,TX0720200,Stephenville Police Department,TX,2686,Erath,19991,0,76401,32.238136,-98.222377,"(32.238136, -98.222377)"
TX2004cde_agencies.csv,2004,19025,TX0571800,Mesquite Police Department,TX,2671,Dallas,145569,0,75149,32.766987,-96.778424,"(32.766987, -96.778424)"
TX2004cde_agencies.csv,2004,19600,TX1850100,Bovina Police Department,TX,2799,Parmer,1786,0,79009,34.532163,-102.784853,"(34.532163, -102.784853)"
TX2004cde_agencies.csv,2004,19487,TX1540100,Brady Police Department,TX,2774,Mcculloch,5449,0,76825,31.205477,-99.359856,"(31.205477, -99.359856)"
TX2004cde_agencies.csv,2004,19092,TX0670500,Rising Star Police Department,TX,2681,Eastland,819,0,76471,32.324645,-98.83656,"(32.324645, -98.83656)"
TX2004cde_agencies.csv,2004,19723,TX2202500,Sansom Park Village Police Department,TX,2834,Tarrant,4859,0,76114,32.77204,-97.291291,"(32.77204, -97.291291)"
TX2004cde_agencies.csv,2004,19383,TX1230400,Lakeview Police Department,TX,2737,Jefferson,0,0,79239,29.854,-94.149331,"(29.854, -94.149331)"
TX2004cde_agencies.csv,2004,19609,TX1880000,Potter County Sheriff's Office,TX,2802,Potter,15553,0,79101,35.398675,-101.893804,"(35.398675, -101.893804)"
TX2004cde_agencies.csv,2004,19130,TX0750000,Fayette County Sheriff's Office,TX,2689,Fayette,15991,0,78945,29.877886,-96.921231,"(29.877886, -96.921231)"
TX2004cde_agencies.csv,2004,19465,TX1480000,Lipscomb County Sheriff's Office,TX,2762,Lipscomb,3632,0,79056,36.2802,-100.272683,"(36.2802, -100.272683)"
TX2004cde_agencies.csv,2004,19116,TX0711800,El Paso Community College,TX,2684,El Paso,0,0,79998,31.766403,-106.24139,"(31.766403, -106.24139)"
TX2004cde_agencies.csv,2004,18771,TX0070000,Atascosa County Sheriff's Office,TX,2621,Atascosa,28803,0,78026,28.891397,-98.535381,"(28.891397, -98.535381)"
TX2004cde_agencies.csv,2004,19379,TX1220000,Jeff Davis County Sheriff's Office,TX,2736,Jeff Davis,2174,0,79734,30.617342,-104.187821,"(30.617342, -104.187821)"
TX2004cde_agencies.csv,2004,19757,TX2270200,Manor Police Department,TX,2841,Travis,7453,0,78653,30.239513,-97.69127,"(30.239513, -97.69127)"
TX2004cde_agencies.csv,2004,19608,TX1870800,Onalaska Police Department,TX,2801,Polk,1708,0,77360,30.784553,-94.837338,"(30.784553, -94.837338)"
TX2004cde_agencies.csv,2004,18852,TX0200200,Angleton Police Department,TX,2634,Brazoria,19629,0,77515,29.167817,-95.434647,"(29.167817, -95.434647)"
TX2004cde_agencies.csv,2004,19731,TX2203300,University of Texas: Arlington,TX,2834,Tarrant,0,0,76031,32.77204,-97.291291,"(32.77204, -97.291291)"
TX2004cde_agencies.csv,2004,18863,TX0201800,Brazoria Police Department,TX,2634,Brazoria,3089,0,77422,29.167817,-95.434647,"(29.167817, -95.434647)"
TX2004cde_agencies.csv,2004,18907,TX0310100,Brownsville Police Department,TX,2645,Cameron,184941,0,78520,26.102923,-97.478958,"(26.102923, -97.478958)"
TX2004cde_agencies.csv,2004,19610,TX1880100,Amarillo Police Department,TX,2802,Potter,198770,12,79101,35.398675,-101.893804,"(35.398675, -101.893804)"
TX2004cde_agencies.csv,2004,19483,TX1530000,Lynn County Sheriff's Office,TX,2767,Lynn,2481,0,79373,33.178412,-101.818493,"(33.178412, -101.818493)"
TX2004cde_agencies.csv,2004,18944,TX0371000,Alto Police Department,TX,2651,Cherokee,1204,0,75925,31.843872,-95.156345,"(31.843872, -95.156345)"
TX2004cde_agencies.csv,2004,19257,TX1012600,West University Place Police Department,TX,2715,Harris,15806,0,77005,29.857273,-95.393037,"(29.857273, -95.393037)"
TX2004cde_agencies.csv,2004,19437,TX1391000,Reno Police Department,TX,2754,Lamar,3283,12,75462,33.667263,-95.570348,"(33.667263, -95.570348)"
TX2004cde_agencies.csv,2004,19675,TX2120100,Arp Police Department,TX,2826,Smith,992,0,75750,32.375106,-95.268743,"(32.375106, -95.268743)"
TX2004cde_agencies.csv,2004,19720,TX2202200,Richland Hills Police Department,TX,2834,Tarrant,8102,0,76118,32.77204,-97.291291,"(32.77204, -97.291291)"
TX2004cde_agencies.csv,2004,19590,TX1820000,Palo Pinto County Sheriff's Office,TX,2796,Palo Pinto,13781,0,76484,32.75221,-98.317974,"(32.75221, -98.317974)"
TX2004cde_agencies.csv,2004,19671,TX2100100,Center Police Department,TX,2824,Shelby,5246,1,75935,31.790137,-94.142565,"(31.790137, -94.142565)"
TX2004cde_agencies.csv,2004,18776,TX0080000,Austin County Sheriff's Office,TX,2622,Austin,17499,0,77418,29.891901,-96.27017,"(29.891901, -96.27017)"
TX2004cde_agencies.csv,2004,18917,TX0311200,University of Texas: Brownsville,TX,2645,Cameron,0,0,78520,26.102923,-97.478958,"(26.102923, -97.478958)"
TX2004cde_agencies.csv,2004,19733,TX2203600,Dallas-Fort Worth International Airport,TX,2834,Tarrant,0,12,75261,32.77204,-97.291291,"(32.77204, -97.291291)"
TX2004cde_agencies.csv,2004,19161,TX0830000,Gaines County Sheriff's Office,TX,2697,Gaines,9813,0,79360,32.743942,-102.631561,"(32.743942, -102.631561)"
TX2004cde_agencies.csv,2004,18953,TX0410000,Coke County Sheriff's Office,TX,2655,Coke,3244,11,76945,31.877105,-100.635236,"(31.877105, -100.635236)"
TX2004cde_agencies.csv,2004,19016,TX0570900,Duncanville Police Department,TX,2671,Dallas,39988,0,75116,32.766987,-96.778424,"(32.766987, -96.778424)"
TX2004cde_agencies.csv,2004,19463,TX1470300,Mexia Police Department,TX,2761,Limestone,7508,0,76667,31.547543,-96.593623,"(31.547543, -96.593623)"
TX2004cde_agencies.csv,2004,19256,TX1012500,Webster Police Department,TX,2715,Harris,11236,0,77598,29.857273,-95.393037,"(29.857273, -95.393037)"
TX2004cde_agencies.csv,2004,19144,TX0790200,Richmond Police Department,TX,2693,Fort Bend,12121,0,77469,29.526602,-95.771015,"(29.526602, -95.771015)"
TX2004cde_agencies.csv,2004,19433,TX1380300,Munday Police Department,TX,2752,Knox,1349,0,76371,33.616657,-99.747112,"(33.616657, -99.747112)"
TX2004cde_agencies.csv,2004,18820,TX0151600,Live Oak Police Department,TX,2629,Bexar,15628,0,78233,29.448671,-98.520147,"(29.448671, -98.520147)"
TX2004cde_agencies.csv,2004,19194,TX0910100,Collinsville Police Department,TX,2705,Grayson,1656,0,76233,33.624508,-96.675699,"(33.624508, -96.675699)"
TX2004cde_agencies.csv,2004,19716,TX2201800,Lakeside Police Department,TX,2834,Tarrant,1388,0,76108,32.77204,-97.291291,"(32.77204, -97.291291)"
TX2004cde_agencies.csv,2004,19211,TX0930000,Grimes County Sheriff's Office,TX,2707,Grimes,19973,0,77830,30.543231,-95.988082,"(30.543231, -95.988082)"
TX2004cde_agencies.csv,2004,19499,TX1551300,West Police Department,TX,2775,Mclennan,2956,0,76691,31.549493,-97.201472,"(31.549493, -97.201472)"
TX2004cde_agencies.csv,2004,18956,TX0420200,Santa Anna Police Department,TX,2656,Coleman,1032,0,76878,31.914205,-99.346622,"(31.914205, -99.346622)"
TX2004cde_agencies.csv,2004,19062,TX0611300,Little Elm Police Department,TX,2675,Denton,38205,0,75068,33.205005,-97.119046,"(33.205005, -97.119046)"
TX2004cde_agencies.csv,2004,18899,TX0290000,Calhoun County Sheriff's Office,TX,2643,Calhoun,7326,0,77979,28.445366,-96.5833,"(28.445366, -96.5833)"
TX2004cde_agencies.csv,2004,19223,TX0960100,Memphis Police Department,TX,2710,Hall,2111,0,79245,34.453189,-100.576343,"(34.453189, -100.576343)"
TX2004cde_agencies.csv,2004,19778,TX2300900,East Mountain Police Department,TX,2844,Upshur,812,0,75645,32.735349,-94.941184,"(32.735349, -94.941184)"
TX2004cde_agencies.csv,2004,19323,TX1081700,University of Texas: Pan American,TX,2722,Hidalgo,0,0,78539,26.396384,-98.18099,"(26.396384, -98.18099)"
TX2004cde_agencies.csv,2004,18861,TX0201400,West Columbia Police Department,TX,2634,Brazoria,3953,0,77486,29.167817,-95.434647,"(29.167817, -95.434647)"
TX2004cde_agencies.csv,2004,19359,TX1160300,Greenville Police Department,TX,2730,Hunt,26313,0,75403,33.123292,-96.084202,"(33.123292, -96.084202)"
TX2004cde_agencies.csv,2004,19308,TX1080000,Hidalgo County Sheriff's Office,TX,2722,Hidalgo,263120,0,78542,26.396384,-98.18099,"(26.396384, -98.18099)"
TX2004cde_agencies.csv,2004,19725,TX2202700,Westover Hills Police Department,TX,2834,Tarrant,727,0,76107,32.77204,-97.291291,"(32.77204, -97.291291)"
TX2004cde_agencies.csv,2004,19380,TX1230000,Jefferson County Sheriff's Office,TX,2737,Jefferson,35043,0,77701,29.854,-94.149331,"(29.854, -94.149331)"
TX2004cde_agencies.csv,2004,19517,TX1610900,Independent School District: Bay City,TX,2772,Matagorda,0,0,77414,28.783341,-95.997755,"(28.783341, -95.997755)"
TX2004cde_agencies.csv,2004,19521,TX1630100,Castroville Police Department,TX,2777,Medina,2939,0,78009,29.353661,-99.111085,"(29.353661, -99.111085)"
TX2004cde_agencies.csv,2004,19312,TX1080400,Edinburg Police Department,TX,2722,Hidalgo,85137,0,78539,26.396384,-98.18099,"(26.396384, -98.18099)"
TX2004cde_agencies.csv,2004,19527,TX1650100,Midland Police Department,TX,2779,Midland,132625,0,79701,31.870896,-102.024326,"(31.870896, -102.024326)"
TX2004cde_agencies.csv,2004,19069,TX0612900,Roanoke Police Department,TX,2675,Denton,7229,0,76262,33.205005,-97.119046,"(33.205005, -97.119046)"
TX2004cde_agencies.csv,2004,19242,TX1010500,El Lago Police Department,TX,2715,Harris,2790,0,77586,29.857273,-95.393037,"(29.857273, -95.393037)"
TX2004cde_agencies.csv,2004,18782,TX0090100,Muleshoe Police Department,TX,2623,Bailey,4932,0,79347,34.067521,-102.830345,"(34.067521, -102.830345)"
TX2004cde_agencies.csv,2004,19641,TX2000100,Ballinger Police Department,TX,2814,Runnels,3723,0,76821,31.845112,-99.982715,"(31.845112, -99.982715)"
TX2004cde_agencies.csv,2004,18827,TX0153000,Helotes Police Department,TX,2629,Bexar,8629,0,78023,29.448671,-98.520147,"(29.448671, -98.520147)"
TX2004cde_agencies.csv,2004,19501,TX1551600,McLennan Community College,TX,2775,Mclennan,0,0,76708,31.549493,-97.201472,"(31.549493, -97.201472)"
TX2004cde_agencies.csv,2004,19797,TX2370100,Brookshire Police Department,TX,2851,Waller,5004,0,77423,30.013578,-95.982102,"(30.013578, -95.982102)"
TX2004cde_agencies.csv,2004,18781,TX0090000,Bailey County Sheriff's Office,TX,2623,Bailey,1933,0,79347,34.067521,-102.830345,"(34.067521, -102.830345)"
TX2004cde_agencies.csv,2004,19676,TX2120200,Lindale Police Department,TX,2826,Smith,5680,12,75771,32.375106,-95.268743,"(32.375106, -95.268743)"
TX2004cde_agencies.csv,2004,19831,TX2460000,Williamson County Sheriff's Office,TX,2860,Williamson,126310,0,78626,30.64903,-97.605069,"(30.64903, -97.605069)"
TX2004cde_agencies.csv,2004,19552,TX1710000,Moore County Sheriff's Office,TX,2785,Moore,4075,0,79029,35.835676,-101.890502,"(35.835676, -101.890502)"
TX2004cde_agencies.csv,2004,19402,TX1270100,Anson Police Department,TX,2741,Jones,2298,0,79501,32.743709,-99.87443,"(32.743709, -99.87443)"
TX2004cde_agencies.csv,2004,19420,TX1330000,Kerr County Sheriff's Office,TX,2747,Kerr,26051,0,78028,30.059953,-99.353339,"(30.059953, -99.353339)"
TX2004cde_agencies.csv,2004,19713,TX2201400,Haltom City Police Department,TX,2834,Tarrant,44276,0,76117,32.77204,-97.291291,"(32.77204, -97.291291)"
TX2004cde_agencies.csv,2004,19697,TX2190000,Swisher County Sheriff's Office,TX,2833,Swisher,1504,0,79088,34.53046,-101.732852,"(34.53046, -101.732852)"
TX2004cde_agencies.csv,2004,19176,TX0842000,Crystal Beach Police Department,TX,2698,Galveston,0,0,77650,29.228364,-94.895428,"(29.228364, -94.895428)"
TX2004cde_agencies.csv,2004,18779,TX0080700,Wallis Police Department,TX,2622,Austin,1284,0,77485,29.891901,-96.27017,"(29.891901, -96.27017)"
TX2004cde_agencies.csv,2004,19372,TX1190100,Jacksboro Police Department,TX,2733,Jack,4391,0,76458,33.23241,-98.171884,"(33.23241, -98.171884)"
TX2004cde_agencies.csv,2004,19772,TX2290000,Tyler County Sheriff's Office,TX,2843,Tyler,18912,0,75979,30.769295,-94.375656,"(30.769295, -94.375656)"
TX2004cde_agencies.csv,2004,19605,TX1870000,Polk County Sheriff's Office,TX,2801,Polk,37978,12,77351,30.784553,-94.837338,"(30.784553, -94.837338)"
TX2004cde_agencies.csv,2004,19644,TX2010000,Rusk County Sheriff's Office,TX,2815,Rusk,33428,12,75652,32.109423,-94.756382,"(32.109423, -94.756382)"
TX2004cde_agencies.csv,2004,19586,TX1810300,Pinehurst Police Department,TX,2795,Orange,2080,0,77630,30.120918,-93.893358,"(30.120918, -93.893358)"
TX2004cde_agencies.csv,2004,19325,TX1082300,Alton Police Department,TX,2722,Hidalgo,15895,0,78573,26.396384,-98.18099,"(26.396384, -98.18099)"
TX2004cde_agencies.csv,2004,19750,TX2250100,Mount Pleasant Police Department,TX,2839,Titus,16022,0,75455,33.214599,-94.966783,"(33.214599, -94.966783)"
TX2004cde_agencies.csv,2004,19637,TX1990100,Rockwall Police Department,TX,2813,Rockwall,42790,12,75087,32.898054,-96.404396,"(32.898054, -96.404396)"
TX2004cde_agencies.csv,2004,19107,TX0710000,El Paso County Sheriff's Office,TX,2684,El Paso,97068,0,79938,31.766403,-106.24139,"(31.766403, -106.24139)"
TX2004cde_agencies.csv,2004,19347,TX1120000,Hopkins County Sheriff's Office,TX,2726,Hopkins,19290,0,75482,33.148959,-95.565194,"(33.148959, -95.565194)"
TX2004cde_agencies.csv,2004,18891,TX0270600,Bertram Police Department,TX,2641,Burnet,1380,0,78605,30.78963,-98.201187,"(30.78963, -98.201187)"
TX2004cde_agencies.csv,2004,18816,TX0151200,Shavano Park Police Department,TX,2629,Bexar,3514,0,78231,29.448671,-98.520147,"(29.448671, -98.520147)"
TX2004cde_agencies.csv,2004,19558,TX1720200,Lone Star Police Department,TX,2786,Morris,1551,0,75668,33.116466,-94.731265,"(33.116466, -94.731265)"
TX2004cde_agencies.csv,2004,19279,TX1017300,Independent School District: Aldine,TX,2715,Harris,0,0,77032,29.857273,-95.393037,"(29.857273, -95.393037)"
TX2004cde_agencies.csv,2004,18947,TX0380000,Childress County Sheriff's Office,TX,2652,Childress,1026,0,79201,34.529337,-100.208336,"(34.529337, -100.208336)"
TX2004cde_agencies.csv,2004,19046,TX0580000,Dawson County Sheriff's Office,TX,2672,Dawson,3723,0,79331,32.741934,-101.947322,"(32.741934, -101.947322)"
TX2004cde_agencies.csv,2004,19508,TX1570100,Madisonville Police Department,TX,2768,Madison,4589,2,77864,30.966878,-95.930372,"(30.966878, -95.930372)"
TX2004cde_agencies.csv,2004,19117,TX0712200,Independent School District: Socorro,TX,2684,El Paso,0,0,79936,31.766403,-106.24139,"(31.766403, -106.24139)"
TX2004cde_agencies.csv,2004,18838,TX0180000,Bosque County Sheriff's Office,TX,2632,Bosque,11789,0,76665,31.900764,-97.637632,"(31.900764, -97.637632)"
TX2004cde_agencies.csv,2004,19809,TX2400500,Laredo Community College,TX,2854,Webb,0,0,78040,27.770584,-99.326641,"(27.770584, -99.326641)"
TX2004cde_agencies.csv,2004,19005,TX0550100,Van Horn Police Department,TX,2669,Culberson,1928,0,79855,31.445908,-104.526945,"(31.445908, -104.526945)"
TX2004cde_agencies.csv,2004,19502,TX1551700,Riesel Police Department,TX,2775,Mclennan,1023,0,76682,31.549493,-97.201472,"(31.549493, -97.201472)"
TX2004cde_agencies.csv,2004,19049,TX0590100,Hereford Police Department,TX,2673,Deaf Smith,15165,0,79045,34.940766,-102.607564,"(34.940766, -102.607564)"
TX2004cde_agencies.csv,2004,18973,TX0440100,Wellington Police Department,TX,2658,Collingsworth,2148,0,79095,34.963358,-100.272135,"(34.963358, -100.272135)"
TX2004cde_agencies.csv,2004,19430,TX1370300,Texas A&M University: Kingsville,TX,2751,Kleberg,0,0,78363,27.438735,-97.66062,"(27.438735, -97.66062)"
TX2004cde_agencies.csv,2004,19631,TX1970000,Roberts County Sheriff's Office,TX,2811,Roberts,931,0,79059,35.836216,-100.807555,"(35.836216, -100.807555)"
TX2004cde_agencies.csv,2004,19413,TX1290500,Terrell Police Department,TX,2743,Kaufman,16737,12,75160,32.598944,-96.288378,"(32.598944, -96.288378)"
TX2004cde_agencies.csv,2004,18789,TX0120100,Seymour Police Department,TX,2626,Baylor,2610,0,76380,33.618921,-99.207848,"(33.618921, -99.207848)"
TX2004cde_agencies.csv,2004,19285,TX1021200,Texas State Technical College: Marshall,TX,2716,Harrison,0,0,75672,32.547991,-94.374434,"(32.547991, -94.374434)"
TX2004cde_agencies.csv,2004,19477,TX1520600,Texas Tech University: Lubbock,TX,2766,Lubbock,0,0,79409,33.611469,-101.819944,"(33.611469, -101.819944)"
TX2004cde_agencies.csv,2004,19793,TX2350100,Victoria Police Department,TX,2849,Victoria,66988,12,77901,28.79637,-96.971198,"(28.79637, -96.971198)"
TX2004cde_agencies.csv,2004,19646,TX2010300,Overton Police Department,TX,2815,Rusk,2533,0,75684,32.109423,-94.756382,"(32.109423, -94.756382)"
TX2004cde_agencies.csv,2004,19669,TX2090100,Albany Police Department,TX,2823,Shackelford,2007,0,76430,32.74382,-99.347005,"(32.74382, -99.347005)"
TX2004cde_agencies.csv,2004,19042,TX0575200,Southern Methodist University,TX,2671,Dallas,0,0,75275,32.766987,-96.778424,"(32.766987, -96.778424)"
TX2004cde_agencies.csv,2004,19043,TX0575500,Ovilla Police Department,TX,2685,Ellis,3651,0,75154,32.347294,-96.798231,"(32.347294, -96.798231)"
TX2004cde_agencies.csv,2004,18754,TX0010300,Frankston Police Department,TX,2615,Anderson,1174,0,75763,31.841266,-95.661744,"(31.841266, -95.661744)"
