,agency_name,agency_type_name,county_name,division_name,latitude,longitude,nibrs,nibrs_start_date,ori,region_desc,region_name,state_abbr,state_name
TX2390000,Washington County Sheriff's Office,County,WASHINGTON,West South Central,30.17912,-96.388176,False,04/01/2018,TX2390000,Region III,South,TX,Texas
TX0201700,Alvin Community College,University or College,BRAZORIA,West South Central,29.167817,-95.434647,False,,TX0201700,Region III,South,TX,Texas
TX0690000,Edwards County Sheriff's Office,County,EDWARDS,West South Central,29.985877,-100.307373,False,,TX0690000,Region III,South,TX,Texas
TX1011700,Seabrook Police Department,City,HARRIS,West South Central,29.564535,-95.02338,False,,TX1011700,Region III,South,TX,Texas
TX1660000,Milam County Sheriff's Office,County,MILAM,West South Central,30.85512,-96.98046,False,,TX1660000,Region III,South,TX,Texas
TX1580000,Marion County Sheriff's Office,County,MARION,West South Central,32.798182,-94.356853,False,,TX1580000,Region III,South,TX,Texas
TX2470000,Wilson County Sheriff's Office,County,WILSON,West South Central,29.173883,-98.086734,False,,TX2470000,Region III,South,TX,Texas
TX0612500,Double Oak Police Department,City,DENTON,West South Central,33.062622,-97.095955,True,01/01/2017,TX0612500,Region III,South,TX,Texas
TX0840200,Dickinson Police Department,City,GALVESTON,West South Central,29.462942,-95.05215,False,,TX0840200,Region III,South,TX,Texas
TX1017000,Independent School District: Spring Branch,Other,HARRIS,West South Central,29.798367,-95.51263,False,,TX1017000,Region III,South,TX,Texas
TX0202800,Surfside Beach Police Department,City,BRAZORIA,West South Central,28.944168,-95.297905,False,01/01/2018,TX0202800,Region III,South,TX,Texas
TX0290100,Point Comfort Police Department,City,CALHOUN,West South Central,28.445366,-96.5833,False,,TX0290100,Region III,South,TX,Texas
TX0680200,Odessa Police Department,City,MIDLAND; ECTOR,West South Central,31.845774,-102.36773,False,,TX0680200,Region III,South,TX,Texas
TX0450100,Columbus Police Department,City,COLORADO,West South Central,29.595991,-96.508433,False,,TX0450100,Region III,South,TX,Texas
TX1012800,Nassau Bay Police Department,City,HARRIS,West South Central,29.857273,-95.393037,False,,TX1012800,Region III,South,TX,Texas
TX2460200,Georgetown Police Department,City,WILLIAMSON,West South Central,30.636448,-97.680916,True,10/01/2003,TX2460200,Region III,South,TX,Texas
TX1810200,Orange Police Department,City,ORANGE,West South Central,30.120918,-93.893358,False,02/01/2018,TX1810200,Region III,South,TX,Texas
TX0313300,Indian Lake Police Department,City,CAMERON,West South Central,26.102923,-97.478958,False,,TX0313300,Region III,South,TX,Texas
TX1820000,Palo Pinto County Sheriff's Office,County,PALO PINTO,West South Central,32.75221,-98.317974,False,,TX1820000,Region III,South,TX,Texas
TX1090300,Itasca Police Department,City,HILL,West South Central,32.159992,-97.15036,False,,TX1090300,Region III,South,TX,Texas
TX0152200,Selma Police Department,City,COMAL; GUADALUPE; BEXAR,West South Central,29.448671,-98.520147,False,,TX0152200,Region III,South,TX,Texas
TX0110800,Independent School District:,Other,BASTROP,West South Central,,,False,,TX0110800,Region III,South,TX,Texas
TX2230100,Brownfield Police Department,City,TERRY,West South Central,33.171229,-102.339284,False,02/01/2018,TX2230100,Region III,South,TX,Texas
TX0431800,Murphy Police Department,City,COLLIN,West South Central,33.016426,-96.612785,True,01/01/2007,TX0431800,Region III,South,TX,Texas
TX1080500,Elsa Police Department,City,HIDALGO,West South Central,26.396384,-98.18099,False,,TX1080500,Region III,South,TX,Texas
TX0670400,Ranger Police Department,City,EASTLAND,West South Central,32.471584,-98.683,False,,TX0670400,Region III,South,TX,Texas
TX0611400,Aubrey Police Department,City,DENTON,West South Central,33.304184,-96.98627,False,,TX0611400,Region III,South,TX,Texas
TX1260100,Alvarado Police Department,City,JOHNSON,West South Central,32.40696,-97.21228,False,,TX1260100,Region III,South,TX,Texas
TX0850000,Garza County Sheriff's Office,County,GARZA,West South Central,33.198063,-101.382416,False,,TX0850000,Region III,South,TX,Texas
TX0575000,Hospital District: Dallas County,Other,DALLAS,West South Central,32.812763,-96.838455,False,,TX0575000,Region III,South,TX,Texas
TX0570800,Desoto Police Department,City,DALLAS,West South Central,32.766987,-96.778424,False,,TX0570800,Region III,South,TX,Texas
TX2050500,Taft Police Department,City,SAN PATRICIO,West South Central,27.981573,-97.39302,False,,TX2050500,Region III,South,TX,Texas
TX1431000,Moulton Police Department,City,LAVACA,West South Central,29.382578,-96.923633,False,,TX1431000,Region III,South,TX,Texas
TX1550800,Mart Police Department,City,LIMESTONE; MCLENNAN,West South Central,31.549493,-97.201472,False,,TX1550800,Region III,South,TX,Texas
TX1330500,Ingram Police Department,City,KERR,West South Central,30.07363,-99.23886,False,03/01/2018,TX1330500,Region III,South,TX,Texas
TX1030000,Hartley County Sheriff's Office,County,HARTLEY,West South Central,35.840244,-102.610047,False,,TX1030000,Region III,South,TX,Texas
TX1700800,Patton Village Police Department,City,MONTGOMERY,West South Central,30.299402,-95.504008,False,,TX1700800,Region III,South,TX,Texas
TX1070900,Caney City Police Department,City,HENDERSON,West South Central,32.211633,-95.853418,False,,TX1070900,Region III,South,TX,Texas
TX0270700,Granite Shoals Police Department,City,BURNET,West South Central,30.590641,-98.38533,False,,TX0270700,Region III,South,TX,Texas
TX0210200,College Station Police Department,City,BRAZOS,West South Central,30.656725,-96.302389,False,,TX0210200,Region III,South,TX,Texas
TX2120900,University of Texas: Tyler,University or College,SMITH,West South Central,32.31339,-95.244896,False,,TX2120900,Region III,South,TX,Texas
TX1500100,Llano Police Department,City,LLANO,West South Central,30.750307,-98.67835,False,01/01/1998,TX1500100,Region III,South,TX,Texas
TX1230700,Port Arthur Police Department,City,ORANGE; JEFFERSON,West South Central,29.854,-94.149331,False,,TX1230700,Region III,South,TX,Texas
TX1200000,Jackson County Sheriff's Office,County,JACKSON,West South Central,28.97839,-96.646736,True,07/01/2012,TX1200000,Region III,South,TX,Texas
TX2200900,Euless Police Department,City,TARRANT,West South Central,32.77204,-97.291291,False,,TX2200900,Region III,South,TX,Texas
TX1100400,South Plains College,University or College,HOCKLEY,West South Central,33.578476,-102.3678,False,,TX1100400,Region III,South,TX,Texas
TX0430500,McKinney Police Department,City,COLLIN,West South Central,33.194745,-96.579846,True,04/01/1997,TX0430500,Region III,South,TX,Texas
TX0140000,Bell County Sheriff's Office,County,BELL,West South Central,31.042303,-97.481374,False,,TX0140000,Region III,South,TX,Texas
TX2300300,Ore City Police Department,City,UPSHUR,West South Central,32.735349,-94.941184,False,,TX2300300,Region III,South,TX,Texas
TX0910400,Sherman Police Department,City,GRAYSON,West South Central,33.624508,-96.675699,False,,TX0910400,Region III,South,TX,Texas
TX0220000,Brewster County Sheriff's Office,County,BREWSTER,West South Central,29.434357,-95.24559,True,01/01/2015,TX0220000,Region III,South,TX,Texas
TX1020200,Marshall Police Department,City,HARRISON,West South Central,32.547991,-94.374434,False,,TX1020200,Region III,South,TX,Texas
TX0371200,Cuney Police Department,City,CHEROKEE,West South Central,31.843872,-95.156345,False,01/01/2018,TX0371200,Region III,South,TX,Texas
TX0310000,Cameron County Sheriff's Office,County,CAMERON,West South Central,26.102923,-97.478958,False,,TX0310000,Region III,South,TX,Texas
TX0920200,Gladewater Police Department,City,UPSHUR; GREGG,West South Central,32.531593,-94.94975,False,10/01/2018,TX0920200,Region III,South,TX,Texas
TX0540100,Crosbyton Police Department,City,CROSBY,West South Central,33.659977,-101.239655,False,,TX0540100,Region III,South,TX,Texas
TX1010400,Deer Park Police Department,City,HARRIS,West South Central,29.857273,-95.393037,False,,TX1010400,Region III,South,TX,Texas
TX2462400,Liberty Hill,City,,West South Central,,,False,,TX2462400,Region III,South,TX,Texas
TX1120000,Hopkins County Sheriff's Office,County,HOPKINS,West South Central,33.139645,-95.59928,False,,TX1120000,Region III,South,TX,Texas
TX1740000,Nacogdoches County Sheriff's Office,County,NACOGDOCHES,West South Central,31.610912,-94.68126,True,01/01/2015,TX1740000,Region III,South,TX,Texas
TX1013900,University of Houston: Clearlake,University or College,HARRIS,West South Central,29.577593,-95.106766,False,,TX1013900,Region III,South,TX,Texas
TX0930000,Grimes County Sheriff's Office,County,GRIMES,West South Central,30.543231,-95.988082,False,,TX0930000,Region III,South,TX,Texas
TX0141100,Holland Police Department,City,BELL,West South Central,31.042303,-97.481374,False,,TX0141100,Region III,South,TX,Texas
TX0701000,Waxahachie Police Department,City,ELLIS,West South Central,32.38487,-96.84779,False,,TX0701000,Region III,South,TX,Texas
TX0370100,Jacksonville Police Department,City,CHEROKEE,West South Central,31.843872,-95.156345,True,06/01/2009,TX0370100,Region III,South,TX,Texas
TX0200400,Danbury Police Department,City,BRAZORIA,West South Central,29.167817,-95.434647,False,,TX0200400,Region III,South,TX,Texas
TX1910000,Randall County Sheriff's Office,County,RANDALL,West South Central,35.119816,-101.86604,False,,TX1910000,Region III,South,TX,Texas
TX1750000,Navarro County Sheriff's Office,County,NAVARRO,West South Central,32.09607,-96.46836,True,01/01/2017,TX1750000,Region III,South,TX,Texas
TX1590000,Martin County Sheriff's Office,County,MARTIN,West South Central,32.30983,-101.961836,False,,TX1590000,Region III,South,TX,Texas
TX2480000,Winkler County Sheriff's Office,County,WINKLER,West South Central,31.831415,-103.055986,False,,TX2480000,Region III,South,TX,Texas
TX1011900,South Houston Police Department,City,HARRIS,West South Central,29.857273,-95.393037,True,05/01/2011,TX1011900,Region III,South,TX,Texas
TX2204000,Colleyville Police Department,City,TARRANT,West South Central,32.88482,-97.14835,False,,TX2204000,Region III,South,TX,Texas
TX1960100,Refugio Police Department,City,REFUGIO,West South Central,28.312716,-97.161366,False,,TX1960100,Region III,South,TX,Texas
TX0860000,Gillespie County Sheriff's Office,County,GILLESPIE,West South Central,30.250408,-98.847885,False,,TX0860000,Region III,South,TX,Texas
TX2080100,Snyder Police Department,City,SCURRY,West South Central,32.744462,-100.913399,False,,TX2080100,Region III,South,TX,Texas
TX1190100,Jacksboro Police Department,City,JACK,West South Central,33.23241,-98.171884,False,,TX1190100,Region III,South,TX,Texas
TX0312400,Independent School District: Brownsville,Other,CAMERON,West South Central,25.934692,-97.48412,False,,TX0312400,Region III,South,TX,Texas
TX2380000,Ward County Sheriff's Office,County,WARD,West South Central,31.592508,-102.88987,False,02/01/2018,TX2380000,Region III,South,TX,Texas
TX0153500,Independent School District: East Central,Other,BEXAR,West South Central,29.448671,-98.520147,False,,TX0153500,Region III,South,TX,Texas
TX2470200,Poth Police Department,City,WILSON,West South Central,29.173883,-98.086734,False,,TX2470200,Region III,South,TX,Texas
TX1810000,Orange County Sheriff's Office,County,ORANGE,West South Central,30.120918,-93.893358,False,,TX1810000,Region III,South,TX,Texas
TX1430100,Hallettsville Police Department,City,LAVACA,West South Central,29.443789,-96.94298,True,02/01/2017,TX1430100,Region III,South,TX,Texas
TX0840400,Galveston Police Department,City,GALVESTON,West South Central,29.29432,-94.828705,False,,TX0840400,Region III,South,TX,Texas
TX0670200,Eastland Police Department,City,EASTLAND,West South Central,32.324645,-98.83656,True,03/01/2017,TX0670200,Region III,South,TX,Texas
TX0290300,Seadrift Police Department,City,CALHOUN,West South Central,28.445366,-96.5833,False,,TX0290300,Region III,South,TX,Texas
TX2460400,Hutto Police Department,City,WILLIAMSON,West South Central,30.542425,-97.54668,False,,TX2460400,Region III,South,TX,Texas
TX2010000,Rusk County Sheriff's Office,County,RUSK,West South Central,32.154736,-94.80016,True,12/01/2010,TX2010000,Region III,South,TX,Texas
TX1017200,Independent School District: Pasadena,Other,HARRIS,West South Central,29.677027,-95.19033,False,,TX1017200,Region III,South,TX,Texas
TX1250100,Alice Police Department,City,JIM WELLS,West South Central,27.733516,-98.090814,False,,TX1250100,Region III,South,TX,Texas
TX0450300,Weimar Police Department,City,COLORADO,West South Central,29.595991,-96.508433,False,,TX0450300,Region III,South,TX,Texas
TX0680000,Ector County Sheriff's Office,County,ECTOR,West South Central,31.865301,-102.542507,False,,TX0680000,Region III,South,TX,Texas
TX1650000,Midland County Sheriff's Office,County,MIDLAND,West South Central,31.870896,-102.024326,False,,TX1650000,Region III,South,TX,Texas
TX1090100,Hillsboro Police Department,City,HILL,West South Central,31.982681,-97.130668,False,03/01/2018,TX1090100,Region III,South,TX,Texas
TX1040000,Haskell County Sheriff's Office,County,HASKELL,West South Central,33.175965,-99.730773,False,,TX1040000,Region III,South,TX,Texas
TX1080300,Edcouch Police Department,City,HIDALGO,West South Central,26.396384,-98.18099,True,12/01/2016,TX1080300,Region III,South,TX,Texas
TX0575200,Southern Methodist University,University or College,DALLAS,West South Central,32.766987,-96.778424,False,,TX0575200,Region III,South,TX,Texas
TX0460100,New Braunfels Police Department,City,GUADALUPE; COMAL,West South Central,29.692354,-98.11035,False,02/01/2018,TX0460100,Region III,South,TX,Texas
TX2401000,Rio Bravo Police Department,City,WEBB,West South Central,27.770584,-99.326641,True,07/01/2015,TX2401000,Region III,South,TX,Texas
TX1160700,Caddo Mills Police Department,City,HUNT,West South Central,33.123292,-96.084202,False,,TX1160700,Region III,South,TX,Texas
TX0140200,Belton Police Department,City,BELL,West South Central,31.042303,-97.481374,False,,TX0140200,Region III,South,TX,Texas
TX0210000,Brazos County Sheriff's Office,County,BRAZOS,West South Central,30.687794,-96.3732,False,,TX0210000,Region III,South,TX,Texas
TX2011100,Tatum Police Department,City,PANOLA; RUSK,West South Central,32.109423,-94.756382,False,,TX2011100,Region III,South,TX,Texas
TX1400500,Sudan Police Department,City,LAMB,West South Central,34.068861,-102.348018,False,,TX1400500,Region III,South,TX,Texas
TX1550600,Lorena Police Department,City,MCLENNAN,West South Central,31.549493,-97.201472,False,01/01/2018,TX1550600,Region III,South,TX,Texas
TX0910200,Denison Police Department,City,GRAYSON,West South Central,33.624508,-96.675699,False,,TX0910200,Region III,South,TX,Texas
TX1551700,Riesel Police Department,City,MCLENNAN,West South Central,31.549493,-97.201472,False,,TX1551700,Region III,South,TX,Texas
TX0151100,Olmos Park Police Department,City,BEXAR,West South Central,29.471867,-98.4906,False,,TX0151100,Region III,South,TX,Texas
TX1230500,Nederland Police Department,City,JEFFERSON,West South Central,29.854,-94.149331,False,,TX1230500,Region III,South,TX,Texas
TX1200200,Ganado Police Department,City,JACKSON,West South Central,28.959802,-96.58908,False,,TX1200200,Region III,South,TX,Texas
TX2271900,Sunset Valley Police Department,City,TRAVIS,West South Central,30.239513,-97.69127,True,12/01/2016,TX2271900,Region III,South,TX,Texas
TX2000000,Runnels County Sheriff's Office,County,RUNNELS,West South Central,31.738207,-99.94529,False,,TX2000000,Region III,South,TX,Texas
TX0610500,Lake Dallas Police Department,City,DENTON,West South Central,33.205005,-97.119046,False,,TX0610500,Region III,South,TX,Texas
TX1081400,Weslaco Police Department,City,HIDALGO,West South Central,26.17173,-97.974785,False,,TX1081400,Region III,South,TX,Texas
TX0700100,Ennis Police Department,City,ELLIS,West South Central,32.347294,-96.798231,False,01/01/2018,TX0700100,Region III,South,TX,Texas
TX0430700,Prosper Police Department,City,DENTON; COLLIN,West South Central,33.194745,-96.579846,False,,TX0430700,Region III,South,TX,Texas
TX0310200,Combes Police Department,City,CAMERON,West South Central,26.102923,-97.478958,False,,TX0310200,Region III,South,TX,Texas
TX1261200,Venus Police Department,City,ELLIS; JOHNSON,West South Central,32.379784,-97.364952,False,,TX1261200,Region III,South,TX,Texas
TX1110000,Hood County Sheriff's Office,County,HOOD,West South Central,32.430149,-97.831677,True,08/01/2017,TX1110000,Region III,South,TX,Texas
TX2150100,Breckenridge Police Department,City,STEPHENS,West South Central,32.756283,-98.90226,False,01/01/2018,TX2150100,Region III,South,TX,Texas
TX2370800,Prairie View  Police Department,City,WALLER,West South Central,30.013578,-95.982102,False,,TX2370800,Region III,South,TX,Texas
TX0080900,Independent School District: Sealy,Other,AUSTIN,West South Central,29.772886,-96.15974,False,,TX0080900,Region III,South,TX,Texas
TX0920000,Gregg County Sheriff's Office,County,GREGG,West South Central,32.486397,-94.816276,False,,TX0920000,Region III,South,TX,Texas
TX1010600,Galena Park Police Department,City,HARRIS,West South Central,29.857273,-95.393037,False,,TX1010600,Region III,South,TX,Texas
TX0320000,Camp County Sheriff's Office,County,CAMP,West South Central,32.995636,-94.9661,False,,TX0320000,Region III,South,TX,Texas
TX2140300,Roma Police Department,City,STARR,West South Central,26.546335,-98.715803,True,12/01/2016,TX2140300,Region III,South,TX,Texas
TX1170500,Stinnett Police Department,City,HUTCHINSON,West South Central,35.837047,-101.362746,False,,TX1170500,Region III,South,TX,Texas
TX0750800,Flatonia Police Department,City,FAYETTE,West South Central,29.877886,-96.921231,False,,TX0750800,Region III,South,TX,Texas
TX0150000,Bexar County Sheriff's Office,County,BEXAR,West South Central,29.429178,-98.50717,False,,TX0150000,Region III,South,TX,Texas
TX1740200,Nacogdoches Police Department,City,NACOGDOCHES,West South Central,31.62056,-94.62025,True,09/01/1997,TX1740200,Region III,South,TX,Texas
TX0200200,Angleton Police Department,City,BRAZORIA,West South Central,29.182587,-95.432724,False,,TX0200200,Region III,South,TX,Texas
TX1390400,Paris Junior College,University or College,LAMAR,West South Central,33.667263,-95.570348,False,,TX1390400,Region III,South,TX,Texas
TX2540000,Zavala County Sheriff's Office,County,ZAVALA,West South Central,28.679815,-99.82764,True,09/01/2015,TX2540000,Region III,South,TX,Texas
TX1082500,Independent School District: Edinburg,Other,HIDALGO,West South Central,26.306498,-98.14821,False,,TX1082500,Region III,South,TX,Texas
TX0311300,South Padre Island Police Department,City,CAMERON,West South Central,26.102923,-97.478958,False,03/01/2018,TX0311300,Region III,South,TX,Texas
TX2320100,Uvalde Police Department,City,UVALDE,West South Central,29.35034,-99.761074,False,,TX2320100,Region III,South,TX,Texas
TX0572800,University of Texas: Dallas,University or College,DALLAS,West South Central,32.766987,-96.778424,False,,TX0572800,Region III,South,TX,Texas
TX0950000,Hale County Sheriff's Office,County,HALE,West South Central,34.1599,-101.70848,False,,TX0950000,Region III,South,TX,Texas
TX0432500,Fairview Police Department,City,COLLIN,West South Central,33.194745,-96.579846,False,,TX0432500,Region III,South,TX,Texas
TX1011300,La Porte Police Department,City,HARRIS,West South Central,29.857273,-95.393037,False,,TX1011300,Region III,South,TX,Texas
TX2202700,Westover Hills Police Department,City,TARRANT,West South Central,32.73811,-97.41003,False,07/01/2018,TX2202700,Region III,South,TX,Texas
TX1680000,Mitchell County Sheriff's Office,County,MITCHELL,West South Central,32.390095,-100.86947,False,,TX1680000,Region III,South,TX,Texas
TX2250100,Mount Pleasant Police Department,City,TITUS,West South Central,33.214599,-94.966783,False,,TX2250100,Region III,South,TX,Texas
TX0870000,Glasscock County Sheriff's Office,County,GLASSCOCK,West South Central,31.868006,-101.521494,False,05/01/2018,TX0870000,Region III,South,TX,Texas
TX0612900,Roanoke Police Department,City,DENTON,West South Central,33.00069,-97.22178,False,,TX0612900,Region III,South,TX,Texas
TX1430300,Yoakum Police Department,City,DEWITT; LAVACA,West South Central,29.382578,-96.923633,False,,TX1430300,Region III,South,TX,Texas
TX0240000,Brooks County Sheriff's Office,County,BROOKS,West South Central,27.034994,-98.215276,False,,TX0240000,Region III,South,TX,Texas
TX2020000,Sabine County Sheriff's Office,County,SABINE,West South Central,31.3433,-93.851913,False,,TX2020000,Region III,South,TX,Texas
TX0840600,Kemah Police Department,City,GALVESTON,West South Central,29.531988,-95.01457,False,,TX0840600,Region III,South,TX,Texas
TX0670000,Eastland County Sheriff's Office,County,EASTLAND,West South Central,32.402565,-98.81908,False,,TX0670000,Region III,South,TX,Texas
TX1012400,Memorial Villages Police Department,City,HARRIS,West South Central,29.763218,-95.538185,False,,TX1012400,Region III,South,TX,Texas
TX2201600,Hurst Police Department,City,TARRANT,West South Central,32.77204,-97.291291,False,,TX2201600,Region III,South,TX,Texas
TX1440100,Giddings Police Department,City,LEE,West South Central,30.18012,-96.937515,False,,TX1440100,Region III,South,TX,Texas
TX1015900,Lone Star College System District ,University or College,HARRIS,West South Central,30.201002,-95.510475,False,,TX1015900,Region III,South,TX,Texas
TX2450000,Willacy County Sheriff's Office,County,WILLACY,West South Central,26.47072,-97.76458,False,,TX2450000,Region III,South,TX,Texas
TX1080900,Mercedes Police Department,City,HIDALGO,West South Central,26.14871,-97.91219,False,,TX1080900,Region III,South,TX,Texas
TX1781600,Independent School District: Corpus Christi,Other,NUECES,West South Central,27.7938,-97.457306,False,,TX1781600,Region III,South,TX,Texas
TX0520100,Crane Police Department,City,CRANE,West South Central,31.397306,-102.35043,False,,TX0520100,Region III,South,TX,Texas
TX0430100,Allen Police Department,City,COLLIN,West South Central,33.101547,-96.67242,False,,TX0430100,Region III,South,TX,Texas
TX0140400,Killeen Police Department,City,BELL,West South Central,31.042303,-97.481374,False,,TX0140400,Region III,South,TX,Texas
TX0570400,Carrollton Police Department,City,COLLIN; DALLAS; DENTON,West South Central,32.766987,-96.778424,False,,TX0570400,Region III,South,TX,Texas
TX1100000,Hockley County Sheriff's Office,County,HOCKLEY,West South Central,33.57934,-102.37784,False,,TX1100000,Region III,South,TX,Texas
TX1070500,Seven Points Police Department,City,KAUFMAN; HENDERSON,West South Central,32.211633,-95.853418,False,,TX1070500,Region III,South,TX,Texas
TX0360700,Mont Belvieu Police Department,City,CHAMBERS,West South Central,29.703933,-94.668875,True,01/01/2017,TX0360700,Region III,South,TX,Texas
TX0711200,Clint Police Department,City,EL PASO,West South Central,31.766403,-106.24139,False,,TX0711200,Region III,South,TX,Texas
TX0790700,Needville Police Department,City,FORT BEND,West South Central,29.526602,-95.771015,False,,TX0790700,Region III,South,TX,Texas
TX2200500,Blue Mound Police Department,City,TARRANT,West South Central,32.864803,-97.34241,False,,TX2200500,Region III,South,TX,Texas
TX1800000,Oldham County Sheriff's Office,County,OLDHAM,West South Central,35.401921,-102.59762,False,,TX1800000,Region III,South,TX,Texas
TX0660200,San Diego Police Department,City,JIM WELLS; DUVAL,West South Central,27.760904,-98.23882,False,,TX0660200,Region III,South,TX,Texas
TX1500500,Sunrise Beach Village Police Department,City,LLANO,West South Central,30.58983,-98.42496,False,,TX1500500,Region III,South,TX,Texas
TX0151300,Terrell Hills Police Department,City,BEXAR,West South Central,29.474962,-98.45926,False,,TX0151300,Region III,South,TX,Texas
TX1230300,Groves Police Department,City,JEFFERSON,West South Central,29.854,-94.149331,False,,TX1230300,Region III,South,TX,Texas
TX2520200,Olney Police Department,City,YOUNG,West South Central,33.158787,-98.678267,False,06/01/2018,TX2520200,Region III,South,TX,Texas
TX1720000,Morris County Sheriff's Office,County,MORRIS,West South Central,33.03609,-94.727,False,,TX1720000,Region III,South,TX,Texas
TX0610700,Pilot Point Police Department,City,DENTON,West South Central,33.205005,-97.119046,False,,TX0610700,Region III,South,TX,Texas
TX2210300,Merkel Police Department,City,TAYLOR,West South Central,32.470726,-100.01267,False,,TX2210300,Region III,South,TX,Texas
TX1780500,Port Aransas Police Department,City,NUECES,West South Central,27.738129,-97.518441,False,,TX1780500,Region III,South,TX,Texas
TX0080700,Wallis Police Department,City,AUSTIN,West South Central,29.891901,-96.27017,False,,TX0080700,Region III,South,TX,Texas
TX0590000,Deaf Smith County Sheriff's Office,County,DEAF SMITH,West South Central,34.817413,-102.39784,False,09/01/2018,TX0590000,Region III,South,TX,Texas
TX0160000,Blanco County Sheriff's Office,County,BLANCO,West South Central,30.265605,-98.399977,False,,TX0160000,Region III,South,TX,Texas
TX0842800,Independent School District: Santa Fe,Other,GALVESTON,West South Central,29.228364,-94.895428,False,,TX0842800,Region III,South,TX,Texas
TX2530000,Zapata County Sheriff's Office,County,ZAPATA,West South Central,26.996981,-99.182603,False,,TX2530000,Region III,South,TX,Texas
TX2100000,Shelby County Sheriff's Office,County,SHELBY,West South Central,31.790272,-94.18487,False,,TX2100000,Region III,South,TX,Texas
TX1451000,Jewett Police Department,City,LEON,West South Central,31.300493,-95.995622,False,,TX1451000,Region III,South,TX,Texas
TX0200800,Lake Jackson Police Department,City,BRAZORIA,West South Central,29.036402,-95.44871,False,,TX0200800,Region III,South,TX,Texas
TX0571500,Irving Police Department,City,DALLAS,West South Central,32.815025,-96.94995,False,,TX0571500,Region III,South,TX,Texas
TX1701500,Stagecoach Police Department,City,MONTGOMERY,West South Central,30.152172,-95.716515,True,07/01/2015,TX1701500,Region III,South,TX,Texas
TX0920600,White Oak Police Department,City,GREGG,West South Central,32.52135,-94.86098,False,,TX0920600,Region III,South,TX,Texas
TX0141500,Independent School District: Killeen,Other,BELL,West South Central,31.125202,-97.723404,False,,TX0141500,Region III,South,TX,Texas
TX2370200,Waller Police Department,City,HARRIS; WALLER,West South Central,30.013578,-95.982102,False,03/01/2018,TX2370200,Region III,South,TX,Texas
TX0710100,Anthony Police Department,City,EL PASO,West South Central,31.766403,-106.24139,False,,TX0710100,Region III,South,TX,Texas
TX1940300,Bogata Police Department,City,RED RIVER,West South Central,33.619625,-95.048429,False,,TX1940300,Region III,South,TX,Texas
TX1013500,Independent School District:,Other,HARRIS,West South Central,,,False,,TX1013500,Region III,South,TX,Texas
TX1010000,Harris County Sheriff's Office,County,HARRIS,West South Central,29.761494,-95.3576,False,,TX1010000,Region III,South,TX,Texas
TX0940200,Schertz Police Department,City,COMAL; BEXAR; GUADALUPE,West South Central,29.583532,-97.948858,False,,TX0940200,Region III,South,TX,Texas
TX0150200,Balcones Heights Police Department,City,BEXAR,West South Central,29.490864,-98.55476,False,08/01/2018,TX0150200,Region III,South,TX,Texas
TX0911900,Austin College,University or College,GRAYSON,West South Central,33.624508,-96.675699,False,,TX0911900,Region III,South,TX,Texas
TX1390200,Paris Police Department,City,LAMAR,West South Central,33.65059,-95.52379,False,,TX1390200,Region III,South,TX,Texas
TX1520100,Idalou Police Department,City,LUBBOCK,West South Central,33.611469,-101.819944,False,,TX1520100,Region III,South,TX,Texas
TX1000200,Silsbee Police Department,City,HARDIN,West South Central,30.338036,-94.18288,True,01/01/2017,TX1000200,Region III,South,TX,Texas
TX1880100,Amarillo Police Department,City,RANDALL; POTTER,West South Central,35.398675,-101.893804,True,10/01/1999,TX1880100,Region III,South,TX,Texas
TX0201900,Brookside Village Police Department,City,BRAZORIA,West South Central,29.167817,-95.434647,False,,TX0201900,Region III,South,TX,Texas
TX2180100,Sonora Police Department,City,SUTTON,West South Central,30.568474,-100.642075,False,,TX2180100,Region III,South,TX,Texas
TX1660200,Rockdale Police Department,City,MILAM,West South Central,30.791242,-96.984395,True,01/01/2017,TX1660200,Region III,South,TX,Texas
TX1011500,Pasadena Police Department,City,HARRIS,West South Central,29.690775,-95.19727,False,,TX1011500,Region III,South,TX,Texas
TX2030000,San Augustine County Sheriff's Office,County,SAN AUGUSTINE,West South Central,31.382449,-94.16318,False,,TX2030000,Region III,South,TX,Texas
TX0170000,Borden County Sheriff's Office,County,BORDEN,West South Central,32.73859,-101.439199,False,,TX0170000,Region III,South,TX,Texas
TX0153900,Fair Oaks Ranch Police Department,City,COMAL; KENDALL; BEXAR,West South Central,29.731081,-98.62902,False,,TX0153900,Region III,South,TX,Texas
TX2202900,White Settlement Police Department,City,TARRANT,West South Central,32.76616,-97.471596,False,,TX2202900,Region III,South,TX,Texas
TX0432700,Josephine,City,COLLIN,West South Central,,,False,,TX0432700,Region III,South,TX,Texas
TX1670000,Mills County Sheriff's Office,County,MILLS,West South Central,31.494888,-98.594623,False,,TX1670000,Region III,South,TX,Texas
TX2450200,Raymondville Police Department,City,WILLACY,West South Central,26.481844,-97.78723,False,,TX2450200,Region III,South,TX,Texas
TX2020200,Pineland Police Department,City,SABINE,West South Central,31.3433,-93.851913,False,,TX2020200,Region III,South,TX,Texas
TX1012600,West University Place Police Department,City,HARRIS,West South Central,29.714615,-95.43791,False,,TX1012600,Region III,South,TX,Texas
TX2460000,Williamson County Sheriff's Office,County,WILLIAMSON,West South Central,30.648024,-97.6788,False,10/01/2018,TX2460000,Region III,South,TX,Texas
TX2201800,Lakeside Police Department,City,TARRANT,West South Central,32.823067,-97.495544,False,,TX2201800,Region III,South,TX,Texas
TX2490900,Boyd Police Department,City,WISE,West South Central,33.219095,-97.653997,False,,TX2490900,Region III,South,TX,Texas
TX0840800,League City Police Department,City,HARRIS; GALVESTON,West South Central,29.502487,-95.094574,False,,TX0840800,Region III,South,TX,Texas
TX1021300,Independent School District: Hallsville,Other,HARRISON,West South Central,32.547991,-94.374434,False,,TX1021300,Region III,South,TX,Texas
TX1080700,La Villa Police Department,City,HIDALGO,West South Central,26.396384,-98.18099,True,07/01/2015,TX1080700,Region III,South,TX,Texas
TX0280900,Martindale Police Department,City,CALDWELL,West South Central,29.840062,-97.630394,False,,TX0280900,Region III,South,TX,Texas
TX0300000,Callahan County Sheriff's Office,County,CALLAHAN,West South Central,32.29315,-99.372249,False,,TX0300000,Region III,South,TX,Texas
TX0570600,Cockrell Hill Police Department,City,DALLAS,West South Central,32.766987,-96.778424,False,,TX0570600,Region III,South,TX,Texas
TX0711400,Horizon City Police Department,City,EL PASO,West South Central,31.766403,-106.24139,False,,TX0711400,Region III,South,TX,Texas
TX1020000,Harrison County Sheriff's Office,County,HARRISON,West South Central,32.547991,-94.374434,False,07/01/2018,TX1020000,Region III,South,TX,Texas
TX2430400,Iowa Park Police Department,City,WICHITA,West South Central,33.991103,-98.716851,True,01/01/1999,TX2430400,Region III,South,TX,Texas
TX0490800,Oak Ridge Police Department,City,COOKE,West South Central,33.648117,-97.04071,False,,TX0490800,Region III,South,TX,Texas
TX0430300,Farmersville Police Department,City,COLLIN,West South Central,33.16445,-96.36109,False,,TX0430300,Region III,South,TX,Texas
TX1070700,Gun Barrel City Police Department,City,HENDERSON,West South Central,32.211633,-95.853418,False,06/01/2018,TX1070700,Region III,South,TX,Texas
TX0790500,Sugar Land Police Department,City,FORT BEND,West South Central,29.526602,-95.771015,False,,TX0790500,Region III,South,TX,Texas
TX0510100,Paducah Police Department,City,COTTLE,West South Central,34.091906,-100.276442,False,,TX0510100,Region III,South,TX,Texas
TX1230100,Beaumont Police Department,City,JEFFERSON,West South Central,29.854,-94.149331,False,,TX1230100,Region III,South,TX,Texas
TX0210400,Texas A&M University: College Station,University or College,BRAZOS,West South Central,30.656725,-96.302389,False,,TX0210400,Region III,South,TX,Texas
TX1160300,Greenville Police Department,City,HUNT,West South Central,33.123292,-96.084202,False,,TX1160300,Region III,South,TX,Texas
TX2520000,Young County Sheriff's Office,County,YOUNG,West South Central,33.158787,-98.678267,False,,TX2520000,Region III,South,TX,Texas
TX0660000,Duval County Sheriff's Office,County,DUVAL,West South Central,27.681123,-98.497393,True,04/01/2018,TX0660000,Region III,South,TX,Texas
TX0151500,Windcrest Police Department,City,BEXAR,West South Central,29.516685,-98.38106,False,,TX0151500,Region III,South,TX,Texas
TX2200700,Dalworthington Gardens Police Department,City,TARRANT,West South Central,32.70231,-97.1553,False,,TX2200700,Region III,South,TX,Texas
TX0230000,Briscoe County Sheriff's Office,County,BRISCOE,West South Central,34.525172,-101.205893,False,08/01/2018,TX0230000,Region III,South,TX,Texas
TX1720200,Lone Star Police Department,City,MORRIS,West South Central,33.116466,-94.731265,False,,TX1720200,Region III,South,TX,Texas
TX0700500,Midlothian Police Department,City,ELLIS,West South Central,32.347294,-96.798231,False,,TX0700500,Region III,South,TX,Texas
TX0010100,Palestine Police Department,City,ANDERSON,West South Central,31.763123,-95.63455,True,02/01/2017,TX0010100,Region III,South,TX,Texas
TX2300100,Big Sandy Police Department,City,UPSHUR,West South Central,32.735349,-94.941184,False,,TX2300100,Region III,South,TX,Texas
TX0841900,Jamaica Beach Police Department,City,GALVESTON,West South Central,29.228364,-94.895428,False,,TX0841900,Region III,South,TX,Texas
TX1710400,Cactus Police Department,City,MOORE,West South Central,35.835676,-101.890502,False,02/01/2018,TX1710400,Region III,South,TX,Texas
TX0910600,Whitesboro Police Department,City,GRAYSON,West South Central,33.624508,-96.675699,False,,TX0910600,Region III,South,TX,Texas
TX0220200,Sul Ross State University,University or College,BREWSTER,West South Central,30.356956,-103.65161,False,05/01/2018,TX0220200,Region III,South,TX,Texas
TX0160200,Johnson City Police Department,City,BLANCO,West South Central,30.265605,-98.399977,False,,TX0160200,Region III,South,TX,Texas
TX0571700,Lancaster Police Department,City,DALLAS,West South Central,32.766987,-96.778424,True,01/01/2000,TX0571700,Region III,South,TX,Texas
TX1730000,Motley County Sheriff's Office,County,MOTLEY,West South Central,34.057899,-100.793152,False,,TX1730000,Region III,South,TX,Texas
TX1300000,Kendall County Sheriff's Office,County,KENDALL,West South Central,29.804724,-98.722595,True,11/01/2016,TX1300000,Region III,South,TX,Texas
TX0791600,Independent School District: Fort Bend,Other,FORT BEND,West South Central,29.526602,-95.771015,False,,TX0791600,Region III,South,TX,Texas
TX0920400,Kilgore Police Department,City,RUSK; GREGG,West South Central,32.486397,-94.816276,True,04/01/2015,TX0920400,Region III,South,TX,Texas
TX0380100,Childress Police Department,City,CHILDRESS,West South Central,34.529337,-100.208336,False,,TX0380100,Region III,South,TX,Texas
TX1940100,Clarksville Police Department,City,RED RIVER,West South Central,33.610325,-95.05523,False,,TX1940100,Region III,South,TX,Texas
TX0141700,Troy Police Department,City,BELL,West South Central,31.042303,-97.481374,False,,TX0141700,Region III,South,TX,Texas
TX1010200,Bellaire Police Department,City,HARRIS,West South Central,29.702028,-95.46946,False,,TX1010200,Region III,South,TX,Texas
TX0880000,Goliad County Sheriff's Office,County,GOLIAD,West South Central,28.665903,-97.3847,True,01/01/2012,TX0880000,Region III,South,TX,Texas
TX1701700,Montgomery Police Department,City,MONTGOMERY,West South Central,30.299402,-95.504008,False,,TX1701700,Region III,South,TX,Texas
TX1161400,Quinlan Police Department,City,HUNT,West South Central,33.123292,-96.084202,False,,TX1161400,Region III,South,TX,Texas
TX0720100,Dublin Police Department,City,ERATH,West South Central,32.08482,-98.34084,False,,TX0720100,Region III,South,TX,Texas
TX2500300,Mineola Police Department,City,WOOD,West South Central,32.675674,-95.48656,False,,TX2500300,Region III,South,TX,Texas
TX1380200,Knox City Police Department,City,KNOX,West South Central,33.616657,-99.747112,False,07/01/2018,TX1380200,Region III,South,TX,Texas
TX0370300,Rusk Police Department,City,CHEROKEE,West South Central,31.79308,-95.150444,True,10/01/2008,TX0370300,Region III,South,TX,Texas
TX0940000,Guadalupe County Sheriff's Office,County,GUADALUPE,West South Central,29.602009,-97.97006,False,,TX0940000,Region III,South,TX,Texas
TX1170100,Borger Police Department,City,HUTCHINSON,West South Central,35.837047,-101.362746,True,07/01/2016,TX1170100,Region III,South,TX,Texas
TX1390000,Lamar County Sheriff's Office,County,LAMAR,West South Central,33.65229,-95.55757,False,,TX1390000,Region III,South,TX,Texas
TX1082900,Independent School District: Weslaco,Other,HIDALGO,West South Central,26.396384,-98.18099,False,,TX1082900,Region III,South,TX,Texas
TX1620100,Eagle Pass Police Department,City,MAVERICK,West South Central,28.705912,-100.500465,False,,TX1620100,Region III,South,TX,Texas
TX0950400,Plainview Police Department,City,HALE,West South Central,34.189625,-101.70323,False,01/01/2018,TX0950400,Region III,South,TX,Texas
TX1072300,Independent School District: Athens,Other,HENDERSON,West South Central,32.204185,-95.8588,False,,TX1072300,Region III,South,TX,Texas
TX1840400,Hudson Oaks Police Department,City,PARKER,West South Central,32.76851,-97.712,False,04/01/2018,TX1840400,Region III,South,TX,Texas
TX1370300,Texas A&M University: Kingsville,University or College,KLEBERG,West South Central,27.438735,-97.66062,False,,TX1370300,Region III,South,TX,Texas
TX2510100,Denver City Police Department,City,YOAKUM,West South Central,33.162398,-102.832242,False,,TX2510100,Region III,South,TX,Texas
TX0572400,University Park Police Department,City,DALLAS,West South Central,32.845383,-96.797325,False,06/01/2018,TX0572400,Region III,South,TX,Texas
TX0310700,Primera Police Department,City,CAMERON,West South Central,26.102923,-97.478958,False,,TX0310700,Region III,South,TX,Texas
TX2120000,Smith County Sheriff's Office,County,SMITH,West South Central,32.375106,-95.268743,False,,TX2120000,Region III,South,TX,Texas
TX1460100,Cleveland Police Department,City,MONTGOMERY; LIBERTY,West South Central,30.342987,-95.07747,False,,TX1460100,Region III,South,TX,Texas
TX2202300,River Oaks Police Department,City,TARRANT,West South Central,32.778767,-97.393,False,,TX2202300,Region III,South,TX,Texas
TX2350100,Victoria Police Department,City,VICTORIA,West South Central,28.79637,-96.971198,True,04/01/2002,TX2350100,Region III,South,TX,Texas
TX0490100,Gainesville Police Department,City,COOKE,West South Central,33.641155,-97.14656,False,,TX0490100,Region III,South,TX,Texas
TX1016600,Lakeview Police Department,City,HARRIS,West South Central,29.857273,-95.393037,False,,TX1016600,Region III,South,TX,Texas
TX0730100,Lott Police Department,City,FALLS,West South Central,31.25193,-96.934127,False,,TX0730100,Region III,South,TX,Texas
TX0140900,Central Texas College,University or College,BELL,West South Central,31.042303,-97.481374,False,,TX0140900,Region III,South,TX,Texas
TX0960200,Estelline Police Department,City,HALL,West South Central,34.453189,-100.576343,False,,TX0960200,Region III,South,TX,Texas
TX1850200,Friona Police Department,City,PARMER,West South Central,34.532163,-102.784853,False,08/01/2018,TX1850200,Region III,South,TX,Texas
TX1360500,Brackettville Police Department,City,KINNEY,West South Central,29.347086,-100.4177,False,,TX1360500,Region III,South,TX,Texas
TX1083200,Sullivan City Police Department,City,HIDALGO,West South Central,26.396384,-98.18099,False,,TX1083200,Region III,South,TX,Texas
TX0260000,Burleson County Sheriff's Office,County,BURLESON,West South Central,30.526308,-96.70823,False,,TX0260000,Region III,South,TX,Texas
TX1391000,Reno Police Department,City,LAMAR,West South Central,33.667263,-95.570348,True,01/01/2016,TX1391000,Region III,South,TX,Texas
TX0203200,Independent School District: Alvin,Other,BRAZORIA,West South Central,29.167817,-95.434647,False,,TX0203200,Region III,South,TX,Texas
TX1150000,Hudspeth County Sheriff's Office,County,HUDSPETH,West South Central,31.450868,-105.377549,False,,TX1150000,Region III,South,TX,Texas
TX2340300,Grand Saline Police Department,City,VAN ZANDT,West South Central,32.558948,-95.836391,False,06/01/2018,TX2340300,Region III,South,TX,Texas
TX1291500,Independent School District: Kaufman,Other,KAUFMAN,West South Central,32.58366,-96.312706,False,,TX1291500,Region III,South,TX,Texas
TX0110000,Bastrop County Sheriff's Office,County,BASTROP,West South Central,30.102219,-97.30746,False,,TX0110000,Region III,South,TX,Texas
TX0970000,Hamilton County Sheriff's Office,County,HAMILTON,West South Central,31.6949,-98.12756,False,,TX0970000,Region III,South,TX,Texas
TX1520600,Texas Tech University: Lubbock,University or College,LUBBOCK,West South Central,33.611469,-101.819944,True,07/01/2017,TX1520600,Region III,South,TX,Texas
TX0573500,North Lake College,University or College,DALLAS,West South Central,32.875572,-96.96278,False,,TX0573500,Region III,South,TX,Texas
TX0460700,Garden Ridge Police Department,City,COMAL,West South Central,29.806091,-98.260554,False,05/01/2018,TX0460700,Region III,South,TX,Texas
TX0020100,Andrews Police Department,City,ANDREWS,West South Central,32.312258,-102.640206,False,,TX0020100,Region III,South,TX,Texas
TX0250200,Brownwood Police Department,City,BROWN,West South Central,31.727455,-99.001884,False,01/01/2018,TX0250200,Region III,South,TX,Texas
TX2201200,Fort Worth Police Department,City,PARKER; DENTON; TARRANT,West South Central,32.77204,-97.291291,True,10/01/2005,TX2201200,Region III,South,TX,Texas
TX0290900,Independent School District: Calhoun County,Other,CALHOUN,West South Central,28.445366,-96.5833,True,09/01/2017,TX0290900,Region III,South,TX,Texas
TX2270000,Travis County Sheriff's Office,County,TRAVIS,West South Central,30.239513,-97.69127,False,,TX2270000,Region III,South,TX,Texas
TX0420000,Coleman County Sheriff's Office,County,COLEMAN,West South Central,31.83102,-99.42296,False,,TX0420000,Region III,South,TX,Texas
TX2500400,Quitman Police Department,City,WOOD,West South Central,32.783588,-95.382166,False,,TX2500400,Region III,South,TX,Texas
TX0150700,Hill Country Village Police Department,City,BEXAR,West South Central,29.448671,-98.520147,False,,TX0150700,Region III,South,TX,Texas
TX1012000,Southside Place Police Department,City,HARRIS,West South Central,29.714529,-95.43381,False,07/01/2018,TX1012000,Region III,South,TX,Texas
TX0500100,Copperas Cove Police Department,City,LAMPASAS; CORYELL,West South Central,31.122324,-97.90073,False,,TX0500100,Region III,South,TX,Texas
TX2190100,Happy Police Department,City,RANDALL; SWISHER,West South Central,34.53046,-101.732852,True,07/01/2015,TX2190100,Region III,South,TX,Texas
TX0711600,Socorro Police Department,City,EL PASO,West South Central,31.67125,-106.27893,False,,TX0711600,Region III,South,TX,Texas
TX0432000,Lavon Police Department,City,COLLIN,West South Central,33.194745,-96.579846,False,,TX0432000,Region III,South,TX,Texas
TX1700000,Montgomery County Sheriff's Office,County,MONTGOMERY,West South Central,30.335955,-95.453255,False,,TX1700000,Region III,South,TX,Texas
TX0180100,Clifton Police Department,City,BOSQUE,West South Central,31.900764,-97.637632,False,,TX0180100,Region III,South,TX,Texas
TX1070100,Athens Police Department,City,HENDERSON,West South Central,32.208633,-95.85635,False,01/01/2018,TX1070100,Region III,South,TX,Texas
TX0010300,Frankston Police Department,City,HENDERSON; ANDERSON,West South Central,31.841266,-95.661744,True,10/01/2016,TX0010300,Region III,South,TX,Texas
TX0790300,Rosenberg Police Department,City,FORT BEND,West South Central,29.526602,-95.771015,True,01/01/2018,TX0790300,Region III,South,TX,Texas
TX0820000,Frio County Sheriff's Office,County,FRIO,West South Central,28.887709,-99.091835,False,,TX0820000,Region III,South,TX,Texas
TX1014200,University of Houston: Downtown Campus,University or College,HARRIS,West South Central,29.764938,-95.35893,False,,TX1014200,Region III,South,TX,Texas
TX2200100,Arlington Police Department,City,TARRANT,West South Central,32.73912,-97.113525,True,02/01/2016,TX2200100,Region III,South,TX,Texas
TX0700700,Palmer Police Department,City,ELLIS,West South Central,32.347294,-96.798231,False,,TX0700700,Region III,South,TX,Texas
TX1550000,McLennan County Sheriff's Office,County,MCLENNAN,West South Central,31.55447,-97.1364,True,02/01/1998,TX1550000,Region III,South,TX,Texas
TX2030100,San Augustine Police Department,City,SAN AUGUSTINE,West South Central,31.382449,-94.16318,False,,TX2030100,Region III,South,TX,Texas
TX2470700,La Vernia Police Department,City,WILSON,West South Central,29.173883,-98.086734,False,,TX2470700,Region III,South,TX,Texas
TX2430200,Electra Police Department,City,WICHITA,West South Central,34.029793,-98.918495,True,01/01/2017,TX2430200,Region III,South,TX,Texas
TX0570000,Dallas County Sheriff's Office,County,DALLAS,West South Central,32.766987,-96.778424,False,,TX0570000,Region III,South,TX,Texas
TX0090100,Muleshoe Police Department,City,BAILEY,West South Central,34.22386,-102.72415,False,05/01/2018,TX0090100,Region III,South,TX,Texas
TX2460900,Cedar Park Police Department,City,TRAVIS; WILLIAMSON,West South Central,30.52114,-97.823265,False,,TX2460900,Region III,South,TX,Texas
TX0271100,Horseshoe Bay Police Department,City,BURNET; LLANO,West South Central,30.78963,-98.201187,False,02/01/2018,TX0271100,Region III,South,TX,Texas
TX0791400,Fulshear,City,FORT BEND,West South Central,29.526602,-95.771015,False,01/01/2018,TX0791400,Region III,South,TX,Texas
TX0041000,Fulton Police Department,City,ARANSAS,West South Central,,,False,,TX0041000,Region III,South,TX,Texas
TX2203600,Dallas-Fort Worth International Airport,Other,TARRANT,West South Central,32.77204,-97.291291,True,07/01/2003,TX2203600,Region III,South,TX,Texas
TX2272400,Independent School District: Austin,Other,TRAVIS,West South Central,30.239513,-97.69127,False,,TX2272400,Region III,South,TX,Texas
TX1551100,Robinson Police Department,City,MCLENNAN,West South Central,31.468706,-97.11562,False,,TX1551100,Region III,South,TX,Texas
TX0940600,Cibolo Police Department,City,GUADALUPE,West South Central,29.583532,-97.948858,False,,TX0940600,Region III,South,TX,Texas
TX1770300,Sweetwater Police Department,City,NOLAN,West South Central,32.312338,-100.418108,True,01/01/2017,TX1770300,Region III,South,TX,Texas
TX0840900,Texas City Police Department,City,GALVESTON,West South Central,29.393375,-94.90877,False,,TX0840900,Region III,South,TX,Texas
TX0810200,Teague Police Department,City,FREESTONE,West South Central,31.70126,-96.144487,False,,TX0810200,Region III,South,TX,Texas
TX0571100,Garland Police Department,City,ROCKWALL; COLLIN; DALLAS,West South Central,32.908943,-96.65579,False,,TX0571100,Region III,South,TX,Texas
TX1780100,Bishop Police Department,City,NUECES,West South Central,27.738129,-97.518441,False,,TX1780100,Region III,South,TX,Texas
TX1690200,Nocona Police Department,City,MONTAGUE,West South Central,33.788044,-97.725525,False,,TX1690200,Region III,South,TX,Texas
TX1370100,Kingsville Police Department,City,KLEBERG,West South Central,27.438735,-97.66062,False,,TX1370100,Region III,South,TX,Texas
TX0430000,Collin County Sheriff's Office,County,COLLIN,West South Central,33.248085,-96.635704,True,01/01/1997,TX0430000,Region III,South,TX,Texas
TX0572600,University of Texas: Southwestern Medical School,University or College,DALLAS,West South Central,32.81252,-96.838135,False,,TX0572600,Region III,South,TX,Texas
TX0310900,San Benito Police Department,City,CAMERON,West South Central,26.102923,-97.478958,False,,TX0310900,Region III,South,TX,Texas
TX0950200,Hale Center Police Department,City,HALE,West South Central,34.068436,-101.822888,False,,TX0950200,Region III,South,TX,Texas
TX1160000,Hunt County Sheriff's Office,County,HUNT,West South Central,33.13758,-96.10548,False,,TX1160000,Region III,South,TX,Texas
TX2371000,Independent School District: Hempstead,Other,WALLER,West South Central,30.013578,-95.982102,False,,TX2371000,Region III,South,TX,Texas
TX1460300,Dayton Police Department,City,LIBERTY,West South Central,30.046,-94.88714,True,05/01/2017,TX1460300,Region III,South,TX,Texas
TX0843100,Independent School District: Galveston,Other,GALVESTON,West South Central,29.228364,-94.895428,False,,TX0843100,Region III,South,TX,Texas
TX0730300,Rosebud Police Department,City,FALLS,West South Central,31.25193,-96.934127,False,,TX0730300,Region III,South,TX,Texas
TX2202500,Sansom Park Village Police Department,City,TARRANT,West South Central,32.803463,-97.40217,False,,TX2202500,Region III,South,TX,Texas
TX1083000,Penitas Police Department,City,HIDALGO,West South Central,26.396384,-98.18099,False,,TX1083000,Region III,South,TX,Texas
TX1011100,Jacinto City Police Department,City,HARRIS,West South Central,29.76755,-95.24478,False,,TX1011100,Region III,South,TX,Texas
TX1630100,Castroville Police Department,City,MEDINA,West South Central,29.353661,-99.111085,False,06/01/2018,TX1630100,Region III,South,TX,Texas
TX0960000,Hall County Sheriff's Office,County,HALL,West South Central,34.453189,-100.576343,False,01/01/2018,TX0960000,Region III,South,TX,Texas
TX0100000,Bandera County Sheriff's Office,County,BANDERA,West South Central,29.755681,-99.26059,False,,TX0100000,Region III,South,TX,Texas
TX1850000,Parmer County Sheriff's Office,County,PARMER,West South Central,34.532163,-102.784853,False,,TX1850000,Region III,South,TX,Texas
TX2340500,Wills Point Police Department,City,VAN ZANDT,West South Central,32.558948,-95.836391,False,06/01/2018,TX2340500,Region III,South,TX,Texas
TX1521500,New Deal Police Department,City,LUBBOCK,West South Central,33.611469,-101.819944,False,,TX1521500,Region III,South,TX,Texas
TX0740100,Bonham Police Department,City,FANNIN,West South Central,33.578056,-96.17664,False,,TX0740100,Region III,South,TX,Texas
TX0030100,Diboll Police Department,City,ANGELINA,West South Central,31.251951,-94.611056,False,,TX0030100,Region III,South,TX,Texas
TX1231000,Lamar University: Beaumont,University or College,JEFFERSON,West South Central,29.854,-94.149331,False,,TX1231000,Region III,South,TX,Texas
TX1810800,Rose City Police Department,City,ORANGE,West South Central,30.097921,-94.06103,False,,TX1810800,Region III,South,TX,Texas
TX2440000,Wilbarger County Sheriff's Office,County,WILBARGER,West South Central,34.08492,-99.24244,False,,TX2440000,Region III,South,TX,Texas
TX2201400,Haltom City Police Department,City,TARRANT,West South Central,32.77204,-97.291291,False,,TX2201400,Region III,South,TX,Texas
TX0680800,Independent School District: Ector County,Other,ECTOR,West South Central,31.865301,-102.542507,False,,TX0680800,Region III,South,TX,Texas
TX1084100,University of Texas: Rio Grande Valley,University or College,HIDALGO,West South Central,,,False,,TX1084100,Region III,South,TX,Texas
TX1015700,Houston Metropolitan Transit Authority,Other,HARRIS,West South Central,29.857273,-95.393037,False,,TX1015700,Region III,South,TX,Texas
TX2190300,Tulia Police Department,City,SWISHER,West South Central,34.538555,-101.76446,False,05/01/2018,TX2190300,Region III,South,TX,Texas
TX0250000,Brown County Sheriff's Office,County,BROWN,West South Central,31.727455,-99.001884,False,,TX0250000,Region III,South,TX,Texas
TX0420200,Santa Anna Police Department,City,COLEMAN,West South Central,31.73982,-99.323524,False,,TX0420200,Region III,South,TX,Texas
TX2360100,Huntsville Police Department,City,WALKER,West South Central,30.723814,-95.551796,True,06/01/2016,TX2360100,Region III,South,TX,Texas
TX1520400,Slaton Police Department,City,LUBBOCK,West South Central,33.438923,-101.64312,False,,TX1520400,Region III,South,TX,Texas
TX0150900,Kirby Police Department,City,BEXAR,West South Central,29.467829,-98.38129,False,07/01/2018,TX0150900,Region III,South,TX,Texas
TX0890100,Gonzales Police Department,City,GONZALES,West South Central,29.468704,-97.477738,False,,TX0890100,Region III,South,TX,Texas
TX2210100,Abilene Police Department,City,JONES; TAYLOR,West South Central,32.295054,-99.893644,True,05/01/2017,TX2210100,Region III,South,TX,Texas
TX2101300,Timpson Police Department,City,SHELBY,West South Central,31.790137,-94.142565,False,,TX2101300,Region III,South,TX,Texas
TX0570200,Balch Springs Police Department,City,DALLAS,West South Central,32.719345,-96.61623,True,02/01/2017,TX0570200,Region III,South,TX,Texas
TX2260000,Tom Green County Sheriff's Office,County,TOM GREEN,West South Central,31.46255,-100.4414,False,,TX2260000,Region III,South,TX,Texas
TX0190100,De Kalb Police Department,City,BOWIE,West South Central,33.446051,-94.422375,False,,TX0190100,Region III,South,TX,Texas
TX1530200,Tahoka Police Department,City,LYNN,West South Central,33.178412,-101.818493,False,01/01/2018,TX1530200,Region III,South,TX,Texas
TX2200300,Bedford Police Department,City,TARRANT,West South Central,32.77204,-97.291291,True,01/01/1997,TX2200300,Region III,South,TX,Texas
TX1290200,Kaufman Police Department,City,KAUFMAN,West South Central,32.587692,-96.308975,True,07/01/2016,TX1290200,Region III,South,TX,Texas
TX2271100,Lakeway Police Department,City,TRAVIS,West South Central,30.362913,-97.97955,True,01/01/2015,TX2271100,Region III,South,TX,Texas
TX2204900,University of North Texas: Health Science Center,University or College,TARRANT,West South Central,32.77204,-97.291291,False,,TX2204900,Region III,South,TX,Texas
TX0790100,Missouri City Police Department,City,HARRIS; FORT BEND,West South Central,29.526602,-95.771015,False,,TX0790100,Region III,South,TX,Texas
TX1710000,Moore County Sheriff's Office,County,MOORE,West South Central,35.858677,-101.97188,False,,TX1710000,Region III,South,TX,Texas
TX2430000,Wichita County Sheriff's Office,County,WICHITA,West South Central,33.991103,-98.716851,False,,TX2430000,Region III,South,TX,Texas
TX1540000,McCulloch County Sheriff's Office,County,MCCULLOCH,West South Central,31.205477,-99.359856,False,,TX1540000,Region III,South,TX,Texas
TX1780300,Robstown Police Department,City,NUECES,West South Central,27.738129,-97.518441,False,,TX1780300,Region III,South,TX,Texas
TX1210100,Jasper Police Department,City,JASPER,West South Central,30.916101,-94.000305,False,05/01/2018,TX1210100,Region III,South,TX,Texas
TX0571300,Highland Park Police Department,City,DALLAS,West South Central,32.8289,-96.79652,True,01/01/1998,TX0571300,Region III,South,TX,Texas
TX1860000,Pecos County Sheriff's Office,County,PECOS,West South Central,30.770894,-102.71986,False,,TX1860000,Region III,South,TX,Texas
TX0580000,Dawson County Sheriff's Office,County,DAWSON,West South Central,32.741934,-101.947322,False,,TX0580000,Region III,South,TX,Texas
TX1050700,Kyle Police Department,City,HAYS,West South Central,30.061225,-98.029267,False,06/01/2018,TX1050700,Region III,South,TX,Texas
TX1013300,Texas Southern University,University or College,HARRIS,West South Central,29.724693,-95.36266,False,,TX1013300,Region III,South,TX,Texas
TX0080100,Bellville Police Department,City,AUSTIN,West South Central,29.949772,-96.25513,True,02/01/2017,TX0080100,Region III,South,TX,Texas
TX0613200,Ponder Police Department,City,DENTON,West South Central,33.205005,-97.119046,True,01/01/2017,TX0613200,Region III,South,TX,Texas
TX0791200,Arcola Police Department,City,FORT BEND,West South Central,29.510267,-95.4664,False,,TX0791200,Region III,South,TX,Texas
TX2272200,Jonestown Police Department,City,TRAVIS,West South Central,30.239513,-97.69127,False,,TX2272200,Region III,South,TX,Texas
TX2110000,Sherman County Sheriff's Office,County,SHERMAN,West South Central,36.277628,-101.894716,False,,TX2110000,Region III,South,TX,Texas
TX2400600,Texas A&M International University,University or College,WEBB,West South Central,27.573874,-99.43269,False,,TX2400600,Region III,South,TX,Texas
TX0810000,Freestone County Sheriff's Office,County,FREESTONE,West South Central,31.70126,-96.144487,False,,TX0810000,Region III,South,TX,Texas
TX0070300,Poteet Police Department,City,ATASCOSA,West South Central,28.891397,-98.535381,False,,TX0070300,Region III,South,TX,Texas
TX1690000,Montague County Sheriff's Office,County,MONTAGUE,West South Central,33.678356,-97.725014,False,,TX1690000,Region III,South,TX,Texas
TX1000000,Hardin County Sheriff's Office,County,HARDIN,West South Central,30.329612,-94.393149,False,,TX1000000,Region III,South,TX,Texas
TX015319E,Trinity University,University or College,BEXAR,West South Central,,,False,,TX015319E,Region III,South,TX,Texas
TX1051200,Buda Police Department,City,HAYS,West South Central,30.061225,-98.029267,False,,TX1051200,Region III,South,TX,Texas
TX0270200,Marble Falls Police Department,City,BURNET,West South Central,30.78963,-98.201187,True,09/01/1997,TX0270200,Region III,South,TX,Texas
TX1840000,Parker County Sheriff's Office,County,PARKER,West South Central,32.75919,-97.787056,True,01/01/2015,TX1840000,Region III,South,TX,Texas
TX1702000,Independent School District: Conroe,Other,MONTGOMERY,West South Central,30.29126,-95.415245,False,,TX1702000,Region III,South,TX,Texas
TX2461800,Thrall Police Department,City,WILLIAMSON,West South Central,30.648024,-97.6788,False,,TX2461800,Region III,South,TX,Texas
TX1016200,Independent School District: Alief,Other,HARRIS,West South Central,29.857273,-95.393037,False,,TX1016200,Region III,South,TX,Texas
TX0470100,Comanche Police Department,City,COMANCHE,West South Central,31.898405,-98.6037,False,,TX0470100,Region III,South,TX,Texas
TX1790100,Perryton Police Department,City,OCHILTREE,West South Central,36.278744,-100.815864,True,11/01/2016,TX1790100,Region III,South,TX,Texas
TX0910100,Collinsville Police Department,City,GRAYSON,West South Central,33.624508,-96.675699,False,,TX0910100,Region III,South,TX,Texas
TX0040100,Aransas Pass Police Department,City,NUECES; ARANSAS; SAN PATRICIO,West South Central,28.011786,-97.517162,False,,TX0040100,Region III,South,TX,Texas
TX221109E,Hardin-Simmons University,University or College,TAYLOR,West South Central,,,False,,TX221109E,Region III,South,TX,Texas
TX1410000,Lampasas County Sheriff's Office,County,LAMPASAS,West South Central,31.196731,-98.240889,False,,TX1410000,Region III,South,TX,Texas
TX0572000,Richardson Police Department,City,COLLIN; DALLAS,West South Central,32.766987,-96.778424,False,,TX0572000,Region III,South,TX,Texas
TX0310300,Harlingen Police Department,City,CAMERON,West South Central,26.102923,-97.478958,False,01/01/2018,TX0310300,Region III,South,TX,Texas
TX2120400,Tyler Police Department,City,SMITH,West South Central,32.3517,-95.30884,True,01/01/2006,TX2120400,Region III,South,TX,Texas
TX0620300,Yorktown Police Department,City,DEWITT,West South Central,29.082346,-97.361654,False,,TX0620300,Region III,South,TX,Texas
TX1010900,Humble Police Department,City,HARRIS,West South Central,29.998848,-95.2683,False,,TX1010900,Region III,South,TX,Texas
TX0750100,La Grange Police Department,City,FAYETTE,West South Central,29.877886,-96.921231,False,07/01/2018,TX0750100,Region III,South,TX,Texas
TX0320100,Pittsburg Police Department,City,CAMP,West South Central,32.995117,-94.966225,False,01/01/2018,TX0320100,Region III,South,TX,Texas
TX2290000,Tyler County Sheriff's Office,County,TYLER,West South Central,30.781633,-94.415375,False,,TX2290000,Region III,South,TX,Texas
TX0611000,Texas Woman's University,University or College,DENTON,West South Central,33.205005,-97.119046,False,10/01/2018,TX0611000,Region III,South,TX,Texas
TX1552600,Bruceville-Eddy Police Department,City,FALLS; MCLENNAN,West South Central,31.306688,-97.24659,False,,TX1552600,Region III,South,TX,Texas
TX2270400,West Lake Hills Police Department,City,TRAVIS,West South Central,30.291775,-97.79938,True,01/01/2017,TX2270400,Region III,South,TX,Texas
TX2140000,Starr County Sheriff's Office,County,STARR,West South Central,26.383215,-98.8192,False,,TX2140000,Region III,South,TX,Texas
TX1080100,Alamo Police Department,City,HIDALGO,West South Central,26.186693,-98.11052,False,08/01/2018,TX1080100,Region III,South,TX,Texas
TX0311400,Texas State Technical College: Harlingen,University or College,CAMERON,West South Central,26.102923,-97.478958,False,,TX0311400,Region III,South,TX,Texas
TX2121500,Bullard Police Department,City,CHEROKEE; SMITH,West South Central,32.375106,-95.268743,False,,TX2121500,Region III,South,TX,Texas
TX0980200,Spearman Police Department,City,HANSFORD,West South Central,36.272847,-101.35693,False,05/01/2018,TX0980200,Region III,South,TX,Texas
TX0630100,Spur Police Department,City,DICKENS,West South Central,33.476532,-100.85538,False,,TX0630100,Region III,South,TX,Texas
TX0200100,Alvin Police Department,City,BRAZORIA,West South Central,29.410925,-95.24367,False,,TX0200100,Region III,South,TX,Texas
TX0350100,Dimmitt Police Department,City,CASTRO,West South Central,34.533621,-102.258786,False,,TX0350100,Region III,South,TX,Texas
TX0780100,Crowell Police Department,City,FOARD,West South Central,33.963306,-99.816828,False,,TX0780100,Region III,South,TX,Texas
TX2480100,Kermit Police Department,City,WINKLER,West South Central,31.831415,-103.055986,False,,TX2480100,Region III,South,TX,Texas
TX2050100,Ingleside Police Department,City,SAN PATRICIO,West South Central,28.011786,-97.517162,False,,TX2050100,Region III,South,TX,Texas
TX0190300,Nash Police Department,City,BOWIE,West South Central,33.446051,-94.422375,False,,TX0190300,Region III,South,TX,Texas
TX2420000,Wheeler County Sheriff's Office,County,WHEELER,West South Central,35.392593,-100.253107,False,,TX2420000,Region III,South,TX,Texas
TX1290000,Kaufman County Sheriff's Office,County,KAUFMAN,West South Central,32.598944,-96.288378,True,06/01/2009,TX1290000,Region III,South,TX,Texas
TX1550400,Hewitt Police Department,City,MCLENNAN,West South Central,31.549493,-97.201472,True,06/01/2016,TX1550400,Region III,South,TX,Texas
TX0912300,Tom Bean Police Department,City,GRAYSON,West South Central,33.624508,-96.675699,False,,TX0912300,Region III,South,TX,Texas
TX0340300,Linden Police Department,City,CASS,West South Central,33.083698,-94.357579,False,,TX0340300,Region III,South,TX,Texas
TX0830200,Seminole Police Department,City,GAINES,West South Central,32.719017,-102.64256,True,09/01/2017,TX0830200,Region III,South,TX,Texas
TX1330100,Kerrville Police Department,City,KERR,West South Central,30.059953,-99.353339,False,,TX1330100,Region III,South,TX,Texas
TX1760100,Newton,City,NEWTON,West South Central,30.786718,-93.73925,False,,TX1760100,Region III,South,TX,Texas
TX0430900,Princeton Police Department,City,COLLIN,West South Central,33.194745,-96.579846,True,01/01/2017,TX0430900,Region III,South,TX,Texas
TX1280200,Kenedy Police Department,City,KARNES,West South Central,28.818602,-97.850266,False,,TX1280200,Region III,South,TX,Texas
TX0201200,Sweeny Police Department,City,BRAZORIA,West South Central,29.167817,-95.434647,True,08/01/2018,TX0201200,Region III,South,TX,Texas
TX1990200,Royse City Police Department,City,HUNT; COLLIN; ROCKWALL,West South Central,32.898054,-96.404396,True,12/01/2011,TX1990200,Region III,South,TX,Texas
TX1050100,San Marcos Police Department,City,CALDWELL; HAYS,West South Central,30.061225,-98.029267,False,11/01/2018,TX1050100,Region III,South,TX,Texas
TX1017300,Independent School District: Aldine,Other,HARRIS,West South Central,29.935019,-95.35409,True,02/01/2017,TX1017300,Region III,South,TX,Texas
TX2203200,Southlake Police Department,City,DENTON; TARRANT,West South Central,32.939102,-97.183655,False,,TX2203200,Region III,South,TX,Texas
TX2460500,Round Rock Police Department,City,TRAVIS; WILLIAMSON,West South Central,30.64903,-97.605069,False,,TX2460500,Region III,South,TX,Texas
TX1270400,Stamford Police Department,City,HASKELL; JONES,West South Central,32.743709,-99.87443,False,,TX1270400,Region III,South,TX,Texas
TX1140000,Howard County Sheriff's Office,County,HOWARD,West South Central,32.303471,-101.438772,False,,TX1140000,Region III,South,TX,Texas
TX2330100,Del Rio Police Department,City,VAL VERDE,West South Central,29.383986,-100.90486,False,,TX2330100,Region III,South,TX,Texas
TX0361000,Independent School District: Barbers Hill,Other,CHAMBERS,West South Central,29.703933,-94.668875,True,01/01/2017,TX0361000,Region III,South,TX,Texas
TX0341400,Bloomburg Police Department,City,CASS,West South Central,33.083698,-94.357579,False,,TX0341400,Region III,South,TX,Texas
TX1570000,Madison County Sheriff's Office,County,MADISON,West South Central,30.961693,-95.892136,False,,TX1570000,Region III,South,TX,Texas
TX1082300,Alton Police Department,City,HIDALGO,West South Central,26.396384,-98.18099,False,,TX1082300,Region III,South,TX,Texas
TX2410200,Wharton Police Department,City,WHARTON,West South Central,29.323185,-96.09805,False,01/01/2018,TX2410200,Region III,South,TX,Texas
TX1470300,Mexia Police Department,City,LIMESTONE,West South Central,31.547543,-96.593623,False,01/01/2018,TX1470300,Region III,South,TX,Texas
TX0313800,Los Indios,City,CAMERON,West South Central,,,False,,TX0313800,Region III,South,TX,Texas
TX1260600,Keene Police Department,City,JOHNSON,West South Central,32.3962,-97.3286,True,01/01/2014,TX1260600,Region III,South,TX,Texas
TX1250800,Orange Grove Police Department,City,JIM WELLS,West South Central,27.733516,-98.090814,False,,TX1250800,Region III,South,TX,Texas
TX0070100,Lytle Police Department,City,BEXAR; MEDINA; ATASCOSA,West South Central,28.891397,-98.535381,True,12/01/2017,TX0070100,Region III,South,TX,Texas
TX2272800,Texas Comptroller of Public Accounts Criminal Investigation Division,Other State Agency,,West South Central,,,False,01/01/2018,TX2272800,Region III,South,TX,Texas
TX0050100,Archer City Police Department,City,ARCHER,West South Central,33.616305,-98.687267,False,07/01/2018,TX0050100,Region III,South,TX,Texas
TX2130000,Somervell County Sheriff's Office,County,SOMERVELL,West South Central,32.217942,-97.769211,False,,TX2130000,Region III,South,TX,Texas
TX0270000,Burnet County Sheriff's Office,County,BURNET,West South Central,30.78963,-98.201187,False,03/01/2018,TX0270000,Region III,South,TX,Texas
TX0576800,Independent School District: Cedar Hill,Other,DALLAS,West South Central,32.588375,-96.95975,False,,TX0576800,Region III,South,TX,Texas
TX1830000,Panola County Sheriff's Office,County,PANOLA,West South Central,32.15494,-94.341286,False,,TX1830000,Region III,South,TX,Texas
TX2202100,North Richland Hills Police Department,City,TARRANT,West South Central,32.77204,-97.291291,True,08/01/2013,TX2202100,Region III,South,TX,Texas
TX1400000,Lamb County Sheriff's Office,County,LAMB,West South Central,33.917583,-102.32047,False,,TX1400000,Region III,South,TX,Texas
TX0572200,Seagoville Police Department,City,KAUFMAN; DALLAS,West South Central,32.64949,-96.54345,False,,TX0572200,Region III,South,TX,Texas
TX0310500,Los Fresnos Police Department,City,CAMERON,West South Central,26.07279,-97.47874,True,10/01/2017,TX0310500,Region III,South,TX,Texas
TX2120200,Lindale Police Department,City,SMITH,West South Central,32.375106,-95.268743,True,07/01/2011,TX2120200,Region III,South,TX,Texas
TX0740500,Trenton Police Department,City,FANNIN,West South Central,33.591161,-96.104988,False,,TX0740500,Region III,South,TX,Texas
TX0260200,Somerville Police Department,City,BURLESON,West South Central,30.493487,-96.622091,False,,TX0260200,Region III,South,TX,Texas
TX2340100,Canton Police Department,City,VAN ZANDT,West South Central,32.558948,-95.836391,False,,TX2340100,Region III,South,TX,Texas
TX1450900,Normangee Police Department,City,MADISON; LEON,West South Central,31.300493,-95.995622,True,08/01/2015,TX1450900,Region III,South,TX,Texas
TX0612300,Corinth Police Department,City,DENTON,West South Central,33.149704,-97.06156,False,,TX0612300,Region III,South,TX,Texas
TX1071000,Tool Police Department,City,HENDERSON,West South Central,32.211633,-95.853418,False,06/01/2018,TX1071000,Region III,South,TX,Texas
TX0840000,Galveston County Sheriff's Office,County,GALVESTON,West South Central,29.303543,-94.78816,False,,TX0840000,Region III,South,TX,Texas
TX0110200,Elgin Police Department,City,TRAVIS; BASTROP,West South Central,30.347258,-97.37147,True,01/01/2018,TX0110200,Region III,South,TX,Texas
TX0970200,Hico Police Department,City,HAMILTON,West South Central,31.706982,-98.111794,False,,TX0970200,Region III,South,TX,Texas
TX2280000,Trinity County Sheriff's Office,County,TRINITY,West South Central,31.087483,-95.153291,False,,TX2280000,Region III,South,TX,Texas
TX2051600,Independent School District: Taft,Other,SAN PATRICIO,West South Central,28.011786,-97.517162,False,,TX2051600,Region III,South,TX,Texas
TX0410000,Coke County Sheriff's Office,County,COKE,West South Central,31.877105,-100.635236,False,,TX0410000,Region III,South,TX,Texas
TX0540200,Lorenzo Police Department,City,CROSBY,West South Central,33.609144,-101.29871,False,,TX0540200,Region III,South,TX,Texas
TX1520800,Wolfforth Police Department,City,LUBBOCK,West South Central,33.611469,-101.819944,True,10/01/2016,TX1520800,Region III,South,TX,Texas
TX0152000,Independent School District: Judson,Other,BEXAR,West South Central,29.448671,-98.520147,False,,TX0152000,Region III,South,TX,Texas
TX2201000,Everman Police Department,City,TARRANT,West South Central,32.631054,-97.28611,False,,TX2201000,Region III,South,TX,Texas
TX0680400,University of Texas: Permian Basin,University or College,ECTOR,West South Central,31.881498,-102.32139,False,,TX0680400,Region III,South,TX,Texas
TX0620100,Cuero Police Department,City,DEWITT,West South Central,29.082346,-97.361654,True,11/01/2016,TX0620100,Region III,South,TX,Texas
TX1810400,Vidor Police Department,City,ORANGE,West South Central,30.120918,-93.893358,True,12/01/2017,TX1810400,Region III,South,TX,Texas
TX0750300,Schulenburg Police Department,City,FAYETTE,West South Central,29.877886,-96.921231,False,05/01/2018,TX0750300,Region III,South,TX,Texas
TX1610100,Bay City Police Department,City,MATAGORDA,West South Central,28.981882,-95.96749,True,02/01/2017,TX1610100,Region III,South,TX,Texas
TX0550000,Culberson County Sheriff's Office,County,CULBERSON,West South Central,31.445908,-104.526945,False,,TX0550000,Region III,South,TX,Texas
TX2270200,Manor Police Department,City,TRAVIS,West South Central,30.239513,-97.69127,False,11/01/2018,TX2270200,Region III,South,TX,Texas
TX0120000,Baylor County Sheriff's Office,County,BAYLOR,West South Central,33.587948,-99.261635,False,,TX0120000,Region III,South,TX,Texas
TX0911000,Howe Police Department,City,GRAYSON,West South Central,33.624508,-96.675699,False,,TX0911000,Region III,South,TX,Texas
TX0573300,Rowlett Police Department,City,ROCKWALL; DALLAS,West South Central,32.766987,-96.778424,True,01/01/1998,TX0573300,Region III,South,TX,Texas
TX1820200,Mineral Wells Police Department,City,PARKER; PALO PINTO,West South Central,32.810078,-98.11293,True,01/01/2017,TX1820200,Region III,South,TX,Texas
TX2490100,Bridgeport Police Department,City,WISE,West South Central,33.213524,-97.75744,True,02/01/2017,TX2490100,Region III,South,TX,Texas
TX0980000,Hansford County Sheriff's Office,County,HANSFORD,West South Central,36.272847,-101.35693,False,,TX0980000,Region III,South,TX,Texas
TX2060100,San Saba Police Department,City,SAN SABA,West South Central,31.155138,-98.819292,True,11/01/1997,TX2060100,Region III,South,TX,Texas
TX0611200,Flower Mound Police Department,City,TARRANT; DENTON,West South Central,33.041096,-97.04453,True,04/01/2002,TX0611200,Region III,South,TX,Texas
TX0330100,Panhandle Police Department,City,CARSON,West South Central,35.405496,-101.355356,False,,TX0330100,Region III,South,TX,Texas
TX2300900,East Mountain Police Department,City,UPSHUR,West South Central,32.735349,-94.941184,False,,TX2300900,Region III,South,TX,Texas
TX0190500,Texarkana Police Department,City,BOWIE,West South Central,33.405632,-94.04313,False,,TX0190500,Region III,South,TX,Texas
TX0130000,Bee County Sheriff's Office,County,BEE,West South Central,28.416077,-97.742586,True,10/01/2016,TX0130000,Region III,South,TX,Texas
TX0990000,Hardeman County Sheriff's Office,County,HARDEMAN,West South Central,34.289904,-99.745697,True,06/01/2015,TX0990000,Region III,South,TX,Texas
TX0312900,Laguna Vista Police Department,City,CAMERON,West South Central,26.103079,-97.291176,False,04/01/2018,TX0312900,Region III,South,TX,Texas
TX0560000,Dallam County Sheriff's Office,County,DALLAM,West South Central,36.06129,-102.5219,False,,TX0560000,Region III,South,TX,Texas
TX2050300,Portland Police Department,City,SAN PATRICIO,West South Central,27.890156,-97.31499,True,06/01/2016,TX2050300,Region III,South,TX,Texas
TX0340100,Atlanta Police Department,City,CASS,West South Central,33.083698,-94.357579,False,,TX0340100,Region III,South,TX,Texas
TX1550200,Beverly Hills Police Department,City,MCLENNAN,West South Central,31.525549,-97.1494,False,,TX1550200,Region III,South,TX,Texas
TX1490100,Three Rivers Police Department,City,LIVE OAK,West South Central,28.351535,-98.126961,False,,TX1490100,Region III,South,TX,Texas
TX1980200,Calvert Police Department,City,ROBERTSON,West South Central,31.025481,-96.514941,False,,TX1980200,Region III,South,TX,Texas
TX1081000,Mission Police Department,City,HIDALGO,West South Central,26.396384,-98.18099,False,,TX1081000,Region III,South,TX,Texas
TX0400000,Cochran County Sheriff's Office,County,COCHRAN,West South Central,33.7252,-102.75924,False,,TX0400000,Region III,South,TX,Texas
TX0912100,Tioga Police Department,City,GRAYSON,West South Central,33.624508,-96.675699,False,10/01/2018,TX0912100,Region III,South,TX,Texas
TX1280000,Karnes County Sheriff's Office,County,KARNES,West South Central,28.885094,-97.90106,False,,TX1280000,Region III,South,TX,Texas
TX0574400,Mountain View College,University or College,DALLAS,West South Central,32.72039,-96.90166,False,,TX0574400,Region III,South,TX,Texas
TX0830000,Gaines County Sheriff's Office,County,GAINES,West South Central,32.719017,-102.642555,False,,TX0830000,Region III,South,TX,Texas
TX0610100,Argyle Police Department,City,DENTON,West South Central,33.205005,-97.119046,False,,TX0610100,Region III,South,TX,Texas
TX0201000,Pearland Police Department,City,FORT BEND; HARRIS; BRAZORIA,West South Central,29.167817,-95.434647,True,01/01/1998,TX0201000,Region III,South,TX,Texas
TX1130000,Houston County Sheriff's Office,County,HOUSTON,West South Central,31.31833,-95.46038,False,01/01/2018,TX1130000,Region III,South,TX,Texas
TX1050300,Texas State University: San Marcos,University or College,HAYS,West South Central,29.88583,-97.937836,False,,TX1050300,Region III,South,TX,Texas
TX0842200,Bayou Vista Police Department,City,GALVESTON,West South Central,29.330925,-94.93987,False,,TX0842200,Region III,South,TX,Texas
TX1560000,McMullen County Sheriff's Office,County,MCMULLEN,West South Central,28.384922,-98.578853,False,,TX1560000,Region III,South,TX,Texas
TX1990000,Rockwall County Sheriff's Office,County,ROCKWALL,West South Central,32.898054,-96.404396,True,02/01/2012,TX1990000,Region III,South,TX,Texas
TX2450900,Independent School District: Raymondville,Other,WILLACY,West South Central,26.481092,-97.584223,False,,TX2450900,Region III,South,TX,Texas
TX1340100,Junction Police Department,City,KIMBLE,West South Central,30.488403,-99.76526,False,,TX1340100,Region III,South,TX,Texas
TX1270200,Hamlin Police Department,City,JONES,West South Central,32.743709,-99.87443,False,,TX1270200,Region III,South,TX,Texas
TX1551300,West Police Department,City,MCLENNAN,West South Central,31.549493,-97.201472,False,06/01/2018,TX1551300,Region III,South,TX,Texas
TX1631000,Natalia,City,MEDINA,West South Central,29.353661,-99.111085,False,,TX1631000,Region III,South,TX,Texas
TX1120200,Sulphur Springs Police Department,City,HOPKINS,West South Central,33.13756,-95.602875,False,,TX1120200,Region III,South,TX,Texas
TX2410000,Wharton County Sheriff's Office,County,WHARTON,West South Central,29.27848,-96.229674,True,01/01/2012,TX2410000,Region III,South,TX,Texas
TX0280000,Caldwell County Sheriff's Office,County,CALDWELL,West South Central,29.840062,-97.630394,False,,TX0280000,Region III,South,TX,Texas
TX0575500,Ovilla Police Department,City,DALLAS; ELLIS,West South Central,32.527256,-96.88891,False,,TX0575500,Region III,South,TX,Texas
TX2401100,Independent School District: Laredo,Other,WEBB,West South Central,27.50718,-99.512375,False,,TX2401100,Region III,South,TX,Texas
TX0270600,Bertram Police Department,City,BURNET,West South Central,30.78963,-98.201187,False,,TX0270600,Region III,South,TX,Texas
TX1160600,Texas A&M University: Commerce,University or College,HUNT,West South Central,33.123292,-96.084202,True,03/01/2009,TX1160600,Region III,South,TX,Texas
TX0570900,Duncanville Police Department,City,DALLAS,West South Central,32.766987,-96.778424,False,,TX0570900,Region III,South,TX,Texas
TX0300100,Baird Police Department,City,CALLAHAN,West South Central,32.29315,-99.372249,False,07/01/2018,TX0300100,Region III,South,TX,Texas
TX0190600,Wake Village Police Department,City,BOWIE,West South Central,33.446051,-94.422375,False,,TX0190600,Region III,South,TX,Texas
TX0151000,Leon Valley Police Department,City,BEXAR,West South Central,29.49208,-98.61705,False,01/01/2018,TX0151000,Region III,South,TX,Texas
TX1550700,McGregor Police Department,City,MCLENNAN,West South Central,31.4415,-97.40726,False,,TX1550700,Region III,South,TX,Texas
TX0180800,Meridian Police Department,City,BOSQUE,West South Central,31.900764,-97.637632,False,,TX0180800,Region III,South,TX,Texas
TX1230800,Port Neches Police Department,City,JEFFERSON,West South Central,29.854,-94.149331,True,09/01/2016,TX1230800,Region III,South,TX,Texas
TX1720500,Naples Police Department,City,MORRIS,West South Central,33.116466,-94.731265,False,,TX1720500,Region III,South,TX,Texas
TX1551800,Texas State Technical College: Waco,University or College,MCLENNAN,West South Central,31.549493,-97.201472,False,,TX1551800,Region III,South,TX,Texas
TX2000100,Ballinger Police Department,City,RUNNELS,West South Central,31.736975,-99.94931,False,,TX2000100,Region III,South,TX,Texas
TX0700000,Ellis County Sheriff's Office,County,ELLIS,West South Central,32.388092,-96.844894,False,,TX0700000,Region III,South,TX,Texas
TX0430600,Plano Police Department,City,DENTON; COLLIN,West South Central,33.0179,-96.70228,True,07/01/2005,TX0430600,Region III,South,TX,Texas
TX1261300,Godley Police Department,City,JOHNSON,West South Central,32.379784,-97.364952,False,,TX1261300,Region III,South,TX,Texas
TX0610200,Denton Police Department,City,DENTON,West South Central,33.214447,-97.12535,True,01/01/2002,TX0610200,Region III,South,TX,Texas
TX1110100,Granbury Police Department,City,HOOD,West South Central,32.430149,-97.831677,False,,TX1110100,Region III,South,TX,Texas
TX0910500,Van Alstyne Police Department,City,GRAYSON,West South Central,33.624508,-96.675699,False,,TX0910500,Region III,South,TX,Texas
TX0220100,Alpine Police Department,City,BREWSTER,West South Central,29.808997,-103.252458,False,,TX0220100,Region III,South,TX,Texas
TX2120800,Tyler Junior College,University or College,SMITH,West South Central,32.375106,-95.268743,True,07/01/2011,TX2120800,Region III,South,TX,Texas
TX0540000,Crosby County Sheriff's Office,County,CROSBY,West South Central,33.65887,-101.23943,False,03/01/2018,TX0540000,Region III,South,TX,Texas
TX2205000,Hospital District: Tarrant County,Other,TARRANT,West South Central,32.72811,-97.32642,True,10/01/2016,TX2205000,Region III,South,TX,Texas
TX0380000,Childress County Sheriff's Office,County,CHILDRESS,West South Central,34.529337,-100.208336,False,,TX0380000,Region III,South,TX,Texas
TX2462500,Jarrell Police Department,City,WILLIAMSON,West South Central,30.64903,-97.605069,False,,TX2462500,Region III,South,TX,Texas
TX1510000,Loving County Sheriff's Office,County,LOVING,West South Central,31.844936,-103.561229,False,,TX1510000,Region III,South,TX,Texas
TX0770100,Floydada Police Department,City,FLOYD,West South Central,33.986713,-101.33514,False,,TX0770100,Region III,South,TX,Texas
TX0930100,Navasota Police Department,City,GRIMES,West South Central,30.543231,-95.988082,False,02/01/2018,TX0930100,Region III,South,TX,Texas
TX1350000,King County Sheriff's Office,County,KING,West South Central,33.614159,-100.250548,False,,TX1350000,Region III,South,TX,Texas
TX0200500,Freeport Police Department,City,BRAZORIA,West South Central,28.960672,-95.37389,False,01/01/2018,TX0200500,Region III,South,TX,Texas
TX2320000,Uvalde County Sheriff's Office,County,UVALDE,West South Central,29.211359,-99.78582,False,,TX2320000,Region III,South,TX,Texas
TX0613700,Bartonville Police Department,City,DENTON,West South Central,33.205005,-97.119046,False,,TX0613700,Region III,South,TX,Texas
TX0311000,Santa Rosa Police Department,City,CAMERON,West South Central,26.102923,-97.478958,False,,TX0311000,Region III,South,TX,Texas
TX2121900,Independent School District: Tyler,Other,SMITH,West South Central,32.375106,-95.268743,False,,TX2121900,Region III,South,TX,Texas
TX1880200,Amarillo College,University or College,POTTER,West South Central,35.398675,-101.893804,False,,TX1880200,Region III,South,TX,Texas
TX0142300,Texas A&M University: Central Texas,University or College,BELL,West South Central,,,False,,TX0142300,Region III,South,TX,Texas
TX2080000,Scurry County Sheriff's Office,County,SCURRY,West South Central,32.71602,-100.91133,False,,TX2080000,Region III,South,TX,Texas
TX1980000,Robertson County Sheriff's Office,County,ROBERTSON,West South Central,31.025481,-96.514941,True,05/01/2017,TX1980000,Region III,South,TX,Texas
TX1190000,Jack County Sheriff's Office,County,JACK,West South Central,33.23241,-98.171884,False,,TX1190000,Region III,South,TX,Texas
TX2380100,Monahans Police Department,City,WARD,West South Central,31.594904,-102.89081,False,,TX2380100,Region III,South,TX,Texas
TX1890000,Presidio County Sheriff's Office,County,PRESIDIO,West South Central,30.005891,-104.261619,False,,TX1890000,Region III,South,TX,Texas
TX2400000,Webb County Sheriff's Office,County,WEBB,West South Central,27.770584,-99.326641,False,,TX2400000,Region III,South,TX,Texas
TX0290000,Calhoun County Sheriff's Office,County,CALHOUN,West South Central,28.445366,-96.5833,True,01/01/2017,TX0290000,Region III,South,TX,Texas
TX2230000,Terry County Sheriff's Office,County,TERRY,West South Central,33.171229,-102.339284,False,,TX2230000,Region III,South,TX,Texas
TX2051700,Lake City Police Department,City,SAN PATRICIO,West South Central,28.011786,-97.517162,True,07/01/2015,TX2051700,Region III,South,TX,Texas
TX0152100,Alamo Community College District,University or College,BEXAR,West South Central,29.448671,-98.520147,False,,TX0152100,Region III,South,TX,Texas
TX1870400,Corrigan Police Department,City,POLK,West South Central,30.998257,-94.82628,True,07/01/2017,TX1870400,Region III,South,TX,Texas
TX1420000,La Salle County Sheriff's Office,County,LA SALLE,West South Central,28.351098,-99.096774,False,,TX1420000,Region III,South,TX,Texas
TX0450200,Eagle Lake Police Department,City,COLORADO,West South Central,29.595991,-96.508433,False,,TX0450200,Region III,South,TX,Texas
TX1810300,Pinehurst Police Department,City,ORANGE,West South Central,30.104055,-93.77531,False,,TX1810300,Region III,South,TX,Texas
TX1012700,Katy Police Department,City,WALLER; FORT BEND; HARRIS,West South Central,29.80157,-95.81696,True,01/01/1999,TX1012700,Region III,South,TX,Texas
TX2460100,Florence Police Department,City,WILLIAMSON,West South Central,30.64903,-97.605069,False,,TX2460100,Region III,South,TX,Texas
TX1270000,Jones County Sheriff's Office,County,JONES,West South Central,32.743709,-99.87443,False,,TX1270000,Region III,South,TX,Texas
TX0280200,Luling Police Department,City,GUADALUPE; CALDWELL,West South Central,29.681171,-97.65398,False,,TX0280200,Region III,South,TX,Texas
TX0313400,Port of Brownsville,Other,CAMERON,West South Central,26.102923,-97.478958,False,,TX0313400,Region III,South,TX,Texas
TX1090200,Hubbard Police Department,City,HILL,West South Central,31.982681,-97.130668,False,,TX1090200,Region III,South,TX,Texas
TX1080400,Edinburg Police Department,City,HIDALGO,West South Central,26.396384,-98.18099,False,,TX1080400,Region III,South,TX,Texas
TX0670500,Rising Star Police Department,City,EASTLAND,West South Central,32.324645,-98.83656,False,,TX0670500,Region III,South,TX,Texas
TX1650100,Midland Police Department,City,MIDLAND,West South Central,32.002758,-102.07577,False,,TX1650100,Region III,South,TX,Texas
TX0431700,Melissa Police Department,City,COLLIN,West South Central,33.194745,-96.579846,False,08/01/2018,TX0431700,Region III,South,TX,Texas
TX0202700,Jones Creek Police Department,City,BRAZORIA,West South Central,28.967339,-95.46131,False,,TX0202700,Region III,South,TX,Texas
TX1260200,Burleson Police Department,City,TARRANT; JOHNSON,West South Central,32.542843,-97.32428,False,,TX1260200,Region III,South,TX,Texas
TX0460000,Comal County Sheriff's Office,County,COMAL,West South Central,29.681768,-98.15045,False,,TX0460000,Region III,South,TX,Texas
TX0611500,The Colony Police Department,City,DENTON,West South Central,33.098576,-96.88014,True,01/01/2008,TX0611500,Region III,South,TX,Texas
TX1522000,Lubbock Christian University,University or College,,West South Central,,,False,,TX1522000,Region III,South,TX,Texas
TX2270900,Pflugerville Police Department,City,WILLIAMSON; TRAVIS,West South Central,30.239513,-97.69127,True,09/01/2017,TX2270900,Region III,South,TX,Texas
TX2430700,Midwestern State University,University or College,WICHITA,West South Central,33.877552,-98.51852,False,,TX2430700,Region III,South,TX,Texas
TX0190800,Hooks Police Department,City,BOWIE,West South Central,33.446051,-94.422375,False,,TX0190800,Region III,South,TX,Texas
TX1290900,Crandall Police Department,City,KAUFMAN,West South Central,32.598944,-96.288378,False,,TX1290900,Region III,South,TX,Texas
TX0300300,Clyde Police Department,City,CALLAHAN,West South Central,32.29315,-99.372249,False,,TX0300300,Region III,South,TX,Texas
TX0140300,Harker Heights Police Department,City,BELL,West South Central,31.042303,-97.481374,False,,TX0140300,Region III,South,TX,Texas
TX2050800,Gregory Police Department,City,SAN PATRICIO,West South Central,28.011786,-97.517162,False,,TX2050800,Region III,South,TX,Texas
TX0000000,Department of Public Safety,Other State Agency,,West South Central,30.239513,-97.69127,False,,TX0000000,Region III,South,TX,Texas
TX1100100,Levelland Police Department,City,HOCKLEY,West South Central,33.57934,-102.37784,False,10/01/2018,TX1100100,Region III,South,TX,Texas
TX1400400,Olton Police Department,City,LAMB,West South Central,34.068861,-102.348018,False,,TX1400400,Region III,South,TX,Texas
TX1016000,Independent School District: Klein,Other,HARRIS,West South Central,30.04779,-95.53231,False,,TX1016000,Region III,South,TX,Texas
TX1630900,Lacoste Police Department,City,MEDINA,West South Central,29.353661,-99.111085,False,,TX1630900,Region III,South,TX,Texas
TX1550500,Lacy-Lakeview Police Department,City,MCLENNAN,West South Central,31.62393,-97.10311,True,01/01/2016,TX1550500,Region III,South,TX,Texas
TX0711100,El Paso Community College,University or College,EL PASO,West South Central,31.766403,-106.24139,False,,TX0711100,Region III,South,TX,Texas
TX0210100,Bryan Police Department,City,BRAZOS,West South Central,30.656725,-96.302389,False,,TX0210100,Region III,South,TX,Texas
TX1500000,Llano County Sheriff's Office,County,LLANO,West South Central,30.707584,-98.68469,False,,TX1500000,Region III,South,TX,Texas
TX0910300,Pottsboro Police Department,City,GRAYSON,West South Central,33.624508,-96.675699,False,,TX0910300,Region III,South,TX,Texas
TX1200100,Edna Police Department,City,JACKSON,West South Central,28.975735,-96.64819,True,11/01/2011,TX1200100,Region III,South,TX,Texas
TX0530000,Crockett County Sheriff's Office,County,CROCKETT,West South Central,30.717532,-101.404211,False,07/01/2018,TX0530000,Region III,South,TX,Texas
TX0151200,Shavano Park Police Department,City,BEXAR,West South Central,29.448671,-98.520147,False,,TX0151200,Region III,South,TX,Texas
TX2210800,Tye Police Department,City,TAYLOR,West South Central,32.295054,-99.893644,False,03/01/2018,TX2210800,Region III,South,TX,Texas
TX1081500,La Joya Police Department,City,HIDALGO,West South Central,26.396384,-98.18099,False,,TX1081500,Region III,South,TX,Texas
TX0700200,Ferris Police Department,City,DALLAS; ELLIS,West South Central,32.534283,-96.666824,False,,TX0700200,Region III,South,TX,Texas
TX0430800,Wylie Police Department,City,DALLAS; ROCKWALL; COLLIN,West South Central,33.02303,-96.51876,True,12/01/2006,TX0430800,Region III,South,TX,Texas
TX0310100,Brownsville Police Department,City,CAMERON,West South Central,25.90872,-97.49824,False,,TX0310100,Region III,South,TX,Texas
TX2150000,Stephens County Sheriff's Office,County,STEPHENS,West South Central,32.755444,-98.903915,False,08/01/2018,TX2150000,Region III,South,TX,Texas
TX2370700,Hempstead Police Department,City,WALLER,West South Central,30.013578,-95.982102,True,01/01/2017,TX2370700,Region III,South,TX,Texas
TX1000900,Lumberton Police Department,City,HARDIN,West South Central,30.265972,-94.19866,True,08/01/2010,TX1000900,Region III,South,TX,Texas
TX1570100,Madisonville Police Department,City,MADISON,West South Central,30.966878,-95.930372,True,12/01/2016,TX1570100,Region III,South,TX,Texas
TX0710000,El Paso County Sheriff's Office,County,EL PASO,West South Central,31.766403,-106.24139,False,,TX0710000,Region III,South,TX,Texas
TX1551600,McLennan Community College,University or College,MCLENNAN,West South Central,31.591955,-97.17414,True,07/01/2017,TX1551600,Region III,South,TX,Texas
TX2330000,Val Verde County Sheriff's Office,County,VAL VERDE,West South Central,29.884961,-101.146646,False,,TX2330000,Region III,South,TX,Texas
TX0150100,Alamo Heights Police Department,City,BEXAR,West South Central,29.448671,-98.520147,False,,TX0150100,Region III,South,TX,Texas
TX2140200,Rio Grande City Police Department,City,STARR,West South Central,26.546335,-98.715803,False,,TX2140200,Region III,South,TX,Texas
TX2540100,Crystal City Police Department,City,ZAVALA,West South Central,28.678623,-99.82837,False,,TX2540100,Region III,South,TX,Texas
TX0200300,Clute Police Department,City,BRAZORIA,West South Central,29.02107,-95.4045,False,,TX0200300,Region III,South,TX,Texas
TX0613900,Northlake Police Department,City,DENTON,West South Central,33.205005,-97.119046,False,10/01/2018,TX0613900,Region III,South,TX,Texas
TX0370000,Cherokee County Sheriff's Office,County,CHEROKEE,West South Central,31.806877,-95.15124,False,01/01/2018,TX0370000,Region III,South,TX,Texas
TX1910100,Canyon Police Department,City,RANDALL,West South Central,34.98086,-101.92753,True,09/01/2016,TX1910100,Region III,South,TX,Texas
TX2320200,Sabinal Police Department,City,UVALDE,West South Central,29.35034,-99.761074,False,,TX2320200,Region III,South,TX,Texas
TX2090000,Shackelford County Sheriff's Office,County,SHACKELFORD,West South Central,32.74382,-99.347005,False,,TX2090000,Region III,South,TX,Texas
TX1970000,Roberts County Sheriff's Office,County,ROBERTS,West South Central,35.836216,-100.807555,False,,TX1970000,Region III,South,TX,Texas
TX1750100,Corsicana Police Department,City,NAVARRO,West South Central,32.093422,-96.466545,False,,TX1750100,Region III,South,TX,Texas
TX1011800,Shoreacres Police Department,City,HARRIS,West South Central,29.857273,-95.393037,False,,TX1011800,Region III,South,TX,Texas
TX0470000,Comanche County Sheriff's Office,County,COMANCHE,West South Central,31.911995,-98.60174,False,,TX0470000,Region III,South,TX,Texas
TX2160000,Sterling County Sheriff's Office,County,STERLING,West South Central,31.835774,-101.054911,False,06/01/2018,TX2160000,Region III,South,TX,Texas
TX0312500,Palm Valley Police Department,City,CAMERON,West South Central,26.177607,-97.75787,False,,TX0312500,Region III,South,TX,Texas
TX1580100,Jefferson Police Department,City,MARION,West South Central,32.756817,-94.34427,False,,TX1580100,Region III,South,TX,Texas
TX0201400,West Columbia Police Department,City,BRAZORIA,West South Central,29.142834,-95.645615,True,03/01/2017,TX0201400,Region III,South,TX,Texas
TX0612800,Hickory Creek Police Department,City,DENTON,West South Central,33.205005,-97.119046,False,,TX0612800,Region III,South,TX,Texas
TX2470100,Floresville Police Department,City,WILSON,West South Central,29.132193,-98.15976,False,11/01/2018,TX2470100,Region III,South,TX,Texas
TX1810100,Bridge City Police Department,City,ORANGE,West South Central,30.120918,-93.893358,False,,TX1810100,Region III,South,TX,Texas
TX1430000,Lavaca County Sheriff's Office,County,LAVACA,West South Central,29.382578,-96.923633,True,01/01/2012,TX1430000,Region III,South,TX,Texas
TX0840300,Friendswood Police Department,City,HARRIS; GALVESTON,West South Central,29.228364,-94.895428,False,,TX0840300,Region III,South,TX,Texas
TX1073000,Independent School District:,Other,HENDERSON,West South Central,,,False,,TX1073000,Region III,South,TX,Texas
TX0290200,Port Lavaca Police Department,City,CALHOUN,West South Central,28.616196,-96.626144,True,01/01/1999,TX0290200,Region III,South,TX,Texas
TX1600000,Mason County Sheriff's Office,County,MASON,West South Central,30.703232,-99.237608,False,,TX1600000,Region III,South,TX,Texas
TX1017100,Independent School District: Spring,Other,HARRIS,West South Central,30.005798,-95.42867,False,10/01/2018,TX1017100,Region III,South,TX,Texas
TX1012900,University of Texas: Houston,University or College,HARRIS,West South Central,29.857273,-95.393037,False,,TX1012900,Region III,South,TX,Texas
TX2203000,Keller Police Department,City,TARRANT,West South Central,32.77204,-97.291291,False,,TX2203000,Region III,South,TX,Texas
TX2460300,Granger Police Department,City,WILLIAMSON,West South Central,30.64903,-97.605069,False,,TX2460300,Region III,South,TX,Texas
TX0712200,Independent School District: Socorro,Other,EL PASO,West South Central,31.62441,-106.26337,False,,TX0712200,Region III,South,TX,Texas
TX1250200,Premont Police Department,City,JIM WELLS,West South Central,27.733516,-98.090814,False,,TX1250200,Region III,South,TX,Texas
TX1080200,Donna Police Department,City,HIDALGO,West South Central,26.168982,-98.05338,True,04/01/2017,TX1080200,Region III,South,TX,Texas
TX0152300,Somerset Police Department,City,BEXAR,West South Central,29.448671,-98.520147,False,,TX0152300,Region III,South,TX,Texas
TX1090000,Hill County Sheriff's Office,County,HILL,West South Central,31.982681,-97.130668,False,06/01/2018,TX1090000,Region III,South,TX,Texas
TX0670300,Gorman Police Department,City,EASTLAND,West South Central,32.324645,-98.83656,False,,TX0670300,Region III,South,TX,Texas
TX1040100,Haskell Police Department,City,HASKELL,West South Central,33.175965,-99.730773,False,,TX1040100,Region III,South,TX,Texas
TX0431900,Parker Police Department,City,COLLIN,West South Central,33.055317,-96.62177,False,,TX0431900,Region III,South,TX,Texas
TX0575100,Baylor Health Care System,University or College,DALLAS,West South Central,32.766987,-96.778424,False,,TX0575100,Region III,South,TX,Texas
TX1260000,Johnson County Sheriff's Office,County,JOHNSON,West South Central,32.372623,-97.388985,False,,TX1260000,Region III,South,TX,Texas
TX1410800,Kempner Police Department,City,LAMPASAS,West South Central,31.196731,-98.240889,False,,TX1410800,Region III,South,TX,Texas
TX1781500,Texas A&M University: Corpus Christi,University or College,NUECES,West South Central,27.738129,-97.518441,False,,TX1781500,Region III,South,TX,Texas
TX0711300,Independent School District: El Paso,Other,EL PASO,West South Central,31.766403,-106.24139,False,,TX0711300,Region III,South,TX,Texas
TX0140500,Nolanville Police Department,City,BELL,West South Central,31.042303,-97.481374,False,,TX0140500,Region III,South,TX,Texas
TX0671200,Cisco College,University or College,EASTLAND,West South Central,,,False,,TX0671200,Region III,South,TX,Texas
TX0430200,Celina Police Department,City,COLLIN,West South Central,33.323864,-96.78055,False,08/01/2018,TX0430200,Region III,South,TX,Texas
TX2430500,Wichita Falls Police Department,City,WICHITA,West South Central,33.908684,-98.50251,False,,TX2430500,Region III,South,TX,Texas
TX0570500,Cedar Hill Police Department,City,ELLIS; DALLAS,West South Central,32.766987,-96.778424,False,,TX0570500,Region III,South,TX,Texas
TX0520000,Crane County Sheriff's Office,County,CRANE,West South Central,31.422796,-102.487774,False,11/01/2018,TX0520000,Region III,South,TX,Texas
TX1070400,Trinity Valley Community College,University or College,,West South Central,,,False,09/01/2018,TX1070400,Region III,South,TX,Texas
TX1160200,Commerce Police Department,City,HUNT,West South Central,33.249092,-95.898285,False,,TX1160200,Region III,South,TX,Texas
TX2200400,Benbrook Police Department,City,TARRANT,West South Central,32.77204,-97.291291,False,,TX2200400,Region III,South,TX,Texas
TX2220000,Terrell County Sheriff's Office,County,TERRELL,West South Central,30.232332,-102.072539,False,,TX2220000,Region III,South,TX,Texas
TX0660300,Freer Police Department,City,DUVAL,West South Central,27.681123,-98.497393,False,,TX0660300,Region III,South,TX,Texas
TX1630300,Hondo Police Department,City,MEDINA,West South Central,29.350279,-99.1408,False,,TX1630300,Region III,South,TX,Texas
TX0700400,Italy Police Department,City,ELLIS,West South Central,32.347294,-96.798231,False,,TX0700400,Region III,South,TX,Texas
TX0151400,Universal City Police Department,City,BEXAR,West South Central,29.560911,-98.31195,False,,TX0151400,Region III,South,TX,Texas
TX0010000,Anderson County Sheriff's Office,County,ANDERSON,West South Central,31.765324,-95.61932,False,,TX0010000,Region III,South,TX,Texas
TX1720100,Daingerfield Police Department,City,MORRIS,West South Central,33.03271,-94.722046,False,,TX1720100,Region III,South,TX,Texas
TX0610600,Lewisville Police Department,City,DALLAS; DENTON,West South Central,33.205005,-97.119046,True,01/01/2002,TX0610600,Region III,South,TX,Texas
TX0440000,Collingsworth County Sheriff's Office,County,COLLINGSWORTH,West South Central,34.856037,-100.210915,False,,TX0440000,Region III,South,TX,Texas
TX2300000,Upshur County Sheriff's Office,County,UPSHUR,West South Central,32.731873,-94.94446,False,,TX2300000,Region III,South,TX,Texas
TX1000300,Sour Lake Police Department,City,HARDIN,West South Central,30.329612,-94.393149,False,,TX1000300,Region III,South,TX,Texas
TX0590100,Hereford Police Department,City,DEAF SMITH,West South Central,34.940766,-102.607564,False,,TX0590100,Region III,South,TX,Texas
TX0160100,Blanco Police Department,City,BLANCO,West South Central,30.265605,-98.399977,False,06/01/2018,TX0160100,Region III,South,TX,Texas
TX0710200,El Paso Police Department,City,EL PASO,West South Central,31.75874,-106.48478,False,,TX0710200,Region III,South,TX,Texas
TX2100100,Center Police Department,City,SHELBY,West South Central,31.790137,-94.142565,True,10/01/2016,TX2100100,Region III,South,TX,Texas
TX0200900,Manvel Police Department,City,BRAZORIA,West South Central,29.167817,-95.434647,True,10/01/2017,TX0200900,Region III,South,TX,Texas
TX1701600,Oak Ridge North Police Department,City,MONTGOMERY,West South Central,30.157148,-95.43804,True,12/01/2017,TX1701600,Region III,South,TX,Texas
TX2370100,Brookshire Police Department,City,WALLER,West South Central,30.013578,-95.982102,False,,TX2370100,Region III,South,TX,Texas
TX1570700,Independent School District:,Other,MADISON,West South Central,,,False,,TX1570700,Region III,South,TX,Texas
TX1161300,West Tawakoni Police Department,City,HUNT,West South Central,32.90358,-96.050934,False,,TX1161300,Region III,South,TX,Texas
TX1013600,"San Jacinto College,",University or College,,West South Central,,,False,,TX1013600,Region III,South,TX,Texas
TX1010100,Baytown Police Department,City,CHAMBERS; HARRIS,West South Central,29.761026,-94.964,False,,TX1010100,Region III,South,TX,Texas
TX1910300,West Texas A&M University,University or College,RANDALL,West South Central,34.962529,-101.895547,False,07/01/2018,TX1910300,Region III,South,TX,Texas
