agency_id,ori,legacy_ori,agency_name,short_name,agency_type_id,agency_type_name,tribe_id,campus_id,city_id,city_name,state_id,state_abbr,primary_county_id,primary_county,primary_county_fips,agency_status,submitting_agency_id,submitting_sai,submitting_name,submitting_state_abbr,start_year,dormant_year,current_year,revised_rape_start,current_nibrs_start_year,population,population_group_code,population_group_desc,population_source_flag,suburban_area_flag,core_city_flag,months_reported,nibrs_months_reported,past_10_years_reported,covered_by_id,covered_by_ori,covered_by_name,staffing_year,total_officers,total_civilians,icpsr_zip,icpsr_lat,icpsr_lng
20479,VA1300000,VA1300000,Williamsburg Police Department,Williamsburg,1,City,,,11145,Williamsburg,51,VA,3032,Williamsburg City,51830,A,23396,VAUCR0001,Virginia State Police Criminal Justice Information Services Division,VA,1960,,2016,2013,2016,14915,5,"Cities from 10,000 thru 24,999",M,Y,N,12,12,10,,,,2016,37,3,23185,37.269524,-76.708165
20193,VA0470000,VA0470000,James City County Sheriff's Office,James City,2,County,,,,,51,VA,2966,James City,51095,A,23396,VAUCR0001,Virginia State Police Criminal Justice Information Services Division,VA,1960,,2016,2014,1985,0,9D,"MSA counties under 10,000",L,Y,N,0,0,0,20194,VA0470100,James City County Police Department,1983,27,2,23185,37.324427,-76.778319
20225,VA056SP00,VA056SP00,State Police: Madison County,State Police: Madison County,4,State Police,,,,,51,VA,2977,Madison,51113,A,23396,VAUCR0001,Virginia State Police Criminal Justice Information Services Division,VA,1973,,2016,2013,2016,0,8D,"Non-MSA counties under 10,000",L,N,N,12,12,8,,,,2016,1,0,22701,38.412059,-78.276961
20487,VA1300900,VA1300900,Norfolk Airport Authority,Norfolk Airport Authority,5,Other,,,,,51,VA,3668,,,A,23396,VAUCR0001,Virginia State Police Criminal Justice Information Services Division,VA,1999,,2016,2013,2016,0,7,"Cities under 2,500",L,Y,N,12,12,10,,,,2016,37,8,23518,36.923015,-76.244641
20466,VA1230000,VA1230000,Roanoke Police Department,Roanoke,1,City,,,11115,Roanoke,51,VA,3010,Roanoke City,51770,A,23396,VAUCR0001,Virginia State Police Criminal Justice Information Services Division,VA,1960,,2016,2013,2016,99827,3,"Cities from 50,000 thru 99,000",M,N,Y,12,12,10,,,,2016,245,47,24016,37.278458,-79.958174
20129,VA0290100,VA0290100,Fairfax County Police Department,Fairfax County Police Department,2,County,,,,,51,VA,2940,Fairfax,51059,A,23396,VAUCR0001,Virginia State Police Criminal Justice Information Services Division,VA,1960,,2016,2013,2016,1106066,9A,"MSA counties 100,000 or over",L,Y,N,12,12,10,,,,2016,1414,203,22030,38.833742,-77.276117
20070,VA0090000,VA0090000,Bath County Sheriff's Office,Bath,2,County,,,,,51,VA,2910,Bath,51017,A,23396,VAUCR0001,Virginia State Police Criminal Justice Information Services Division,VA,1960,,2016,2013,2016,4513,8D,"Non-MSA counties under 10,000",L,N,N,12,12,8,,,,2016,12,7,24484,38.068988,-79.732898
20202,VA050SP00,VA050SP00,State Police: King William County,State Police: King William County,4,State Police,,,,,51,VA,2969,King William,51101,A,23396,VAUCR0001,Virginia State Police Criminal Justice Information Services Division,VA,1973,,2016,2013,2016,0,9D,"MSA counties under 10,000",L,Y,N,12,12,3,,,,2016,1,0,23181,37.70826,-77.091054
20174,VA0410000,VA0410000,Halifax County Sheriff's Office,Halifax,2,County,,,,,51,VA,2957,Halifax,51083,A,23396,VAUCR0001,Virginia State Police Criminal Justice Information Services Division,VA,1960,,2016,2013,2016,25680,8B,"Non-MSA counties from 25,000 thru 99,999",L,N,N,12,12,10,,,,2016,31,7,24558,36.766461,-78.939614
20063,VA0060100,VA0060100,Appomattox Police Department,Appomattox,1,City,,,10991,Appomattox,51,VA,2907,Appomattox,51011,A,23396,VAUCR0001,Virginia State Police Criminal Justice Information Services Division,VA,1981,,2016,2014,1989,1752,7,"Cities under 2,500",L,Y,N,0,0,0,20062,VA0060000,Appomattox,1988,2,0,24522,37.370725,-78.81094
20277,VA072SP00,VA072SP00,State Police: Powhatan County,State Police: Powhatan County,4,State Police,,,,,51,VA,3000,Powhatan,51145,A,23396,VAUCR0001,Virginia State Police Criminal Justice Information Services Division,VA,1973,,2016,2013,2016,0,9D,"MSA counties under 10,000",L,Y,N,12,12,7,,,,2016,1,0,23139,37.549404,-77.912855
20400,VA0990000,VA0990000,Alexandria Police Department,Alexandria,1,City,,,10987,Alexandria,51,VA,2903,Alexandria City,51510,A,23396,VAUCR0001,Virginia State Police Criminal Justice Information Services Division,VA,1960,,2016,2013,2016,152710,2,"Cities from 100,000 thru 249,000",M,N,Y,12,12,10,,,,2016,317,92,22314,38.818343,-77.082026
20399,VA098SP00,VA098SP00,State Police: York County,State Police: York County,4,State Police,,,,,51,VA,3036,York,51199,A,23396,VAUCR0001,Virginia State Police Criminal Justice Information Services Division,VA,1971,,2016,2013,2016,0,9D,"MSA counties under 10,000",L,Y,N,12,12,10,,,,2016,1,0,23187,37.220914,-76.395533
20458,VA1210000,VA1210000,Radford Police Department,Radford,1,City,,,11110,Radford,51,VA,3005,Radford City,51750,A,23396,VAUCR0001,Virginia State Police Criminal Justice Information Services Division,VA,1960,,2016,2013,2016,17911,5,"Cities from 10,000 thru 24,999",M,N,Y,12,12,10,,,,2016,37,12,24141,37.120036,-80.557048
20099,VA018SP00,VA018SP00,State Police: Carroll County,State Police: Carroll County,4,State Police,,,,,51,VA,2922,Carroll,51035,A,23396,VAUCR0001,Virginia State Police Criminal Justice Information Services Division,VA,1973,,2016,2013,2016,0,8D,"Non-MSA counties under 10,000",L,N,N,12,12,10,,,,2016,1,0,24333,36.731951,-80.727838
20489,VA1310000,VA1310000,Winchester Police Department,Winchester,1,City,,,11146,Winchester,51,VA,3033,Winchester City,51840,A,23396,VAUCR0001,Virginia State Police Criminal Justice Information Services Division,VA,1960,,2016,2013,2016,27821,4,"Cities from 25,000 thru 49,999",M,N,Y,12,12,10,,,,2016,72,24,22601,39.173869,-78.176356
20111,VA023SP00,VA023SP00,State Police: Craig County,State Police: Craig County,4,State Police,,,,,51,VA,2932,Craig,51045,A,23396,VAUCR0001,Virginia State Police Criminal Justice Information Services Division,VA,1973,,2016,2013,2016,0,9D,"MSA counties under 10,000",L,Y,N,12,12,8,,,,2016,1,0,24153,37.473129,-80.231734
20218,VA0540200,VA0540200,Mineral Police Department,Mineral,1,City,,,11087,Mineral,51,VA,2974,Louisa,51109,A,23396,VAUCR0001,Virginia State Police Criminal Justice Information Services Division,VA,1981,,2016,2014,2001,482,7,"Cities under 2,500",L,N,N,0,0,0,20216,VA0540000,Louisa,1981,1,0,23117,37.971681,-77.959178
20152,VA034SP00,VA034SP00,State Police: Frederick County,State Police: Frederick County,4,State Police,,,,,51,VA,2948,Frederick,51069,A,23396,VAUCR0001,Virginia State Police Criminal Justice Information Services Division,VA,1973,,2016,2013,2016,0,9D,"MSA counties under 10,000",L,Y,N,12,12,10,,,,2016,1,0,22602,39.203637,-78.263916
20047,VA0010700,VA0010700,Bloxom Police Department,Bloxom,1,City,,,10998,Bloxom,51,VA,2901,Accomack,51001,A,23396,VAUCR0001,Virginia State Police Criminal Justice Information Services Division,VA,2011,,2016,2013,,385,7,"Cities under 2,500",L,N,N,0,0,2,,,,2016,1,0,23308,37.765944,-75.757807
20143,VA032SP00,VA032SP00,State Police: Fluvanna County,State Police: Fluvanna County,4,State Police,,,,,51,VA,2945,Fluvanna,51065,A,23396,VAUCR0001,Virginia State Police Criminal Justice Information Services Division,VA,1973,,2016,2013,2016,0,9D,"MSA counties under 10,000",L,Y,N,12,12,7,,,,2016,1,0,23921,37.830576,-78.284435
20377,VA094049E,VA0940400,Emory and Henry College,Emory and Henry College,3,University or College,,194,,,51,VA,3029,Washington,51191,A,23396,VAUCR0001,Virginia State Police Criminal Justice Information Services Division,VA,1998,,2016,2013,2016,0,7,"Cities under 2,500",L,Y,N,12,12,10,,,,2016,2,4,,,
20120,VA0260300,VA0260300,Clinchco Police Department,Clinchco,1,City,,,11021,Clinchco,51,VA,2936,Dickenson,51051,A,23396,VAUCR0001,Virginia State Police Criminal Justice Information Services Division,VA,1998,,2016,2014,2004,319,7,"Cities under 2,500",L,N,N,0,0,2,20117,VA0260000,Dickenson,2007,1,0,24226,37.137081,-82.349208
20297,VA0770000,VA0770000,Pulaski County Sheriff's Office,Pulaski,2,County,,,,,51,VA,3004,Pulaski,51155,A,23396,VAUCR0001,Virginia State Police Criminal Justice Information Services Division,VA,1960,,2016,2013,2016,22511,9C,"MSA counties from 10,000 thru 24,999",L,Y,N,12,12,10,,,,2016,46,2,24301,37.063385,-80.713444
20351,VA0870300,VA0870300,Boykins Police Department,Boykins,1,City,,,11001,Boykins,51,VA,3019,Southampton,51175,A,23396,VAUCR0001,Virginia State Police Criminal Justice Information Services Division,VA,1994,,2016,2013,2016,539,7,"Cities under 2,500",L,N,N,12,12,10,,,,2016,2,0,23827,36.720173,-77.103856
20095,VA0170100,VA0170100,Bowling Green Police Department,Bowling Green,1,City,,,11000,Bowling Green,51,VA,2921,Caroline,51033,A,23396,VAUCR0001,Virginia State Police Criminal Justice Information Services Division,VA,1975,,2016,2013,2016,1162,7,"Cities under 2,500",L,Y,N,12,12,8,,,,2002,2,0,22427,38.030319,-77.352348
20096,VA017SP00,VA017SP00,State Police: Caroline County,State Police: Caroline County,4,State Police,,,,,51,VA,2921,Caroline,51033,A,23396,VAUCR0001,Virginia State Police Criminal Justice Information Services Division,VA,1973,,2016,2013,2016,0,9D,"MSA counties under 10,000",L,Y,N,12,12,10,,,,2016,1,0,22427,38.030319,-77.352348
20272,VA0710100,VA0710100,Chatham Police Department,Chatham,1,City,,,11014,Chatham,51,VA,2997,Pittsylvania,51143,A,23396,VAUCR0001,Virginia State Police Criminal Justice Information Services Division,VA,1975,,2016,2013,2016,1476,7,"Cities under 2,500",L,N,N,12,12,10,,,,2016,3,0,24   ,36.821721,-79.398502
20482,VA1300300,VA1300300,Virginia Commonwealth University,Virginia Commonwealth University,3,University or College,,860,,,51,VA,3668,,,A,23396,VAUCR0001,Virginia State Police Criminal Justice Information Services Division,VA,1975,,2016,2013,2016,0,7,"Cities under 2,500",L,Y,N,12,12,10,,,,2016,88,32,23284,37.531399,-77.476009
20461,VA1220300,VA1220300,Virginia State Capitol,Virginia State Capitol,6,Other State Agency,,,,,51,VA,3668,,,A,23396,VAUCR0001,Virginia State Police Criminal Justice Information Services Division,VA,1989,,2016,2013,2016,0,7,"Cities under 2,500",L,Y,N,12,12,10,,,,2016,60,11,23218,37.531399,-77.476009
20066,VA007990X,VA0079900,Pentagon Bombing 9/11/01,Pentagon Bombing 9/11/01,5,Other,,,,,51,VA,2908,Arlington,51013,A,23396,VAUCR0001,Virginia State Police Criminal Justice Information Services Division,VA,2001,2003,2016,2014,2003,0,9E,MSA State Police,L,Y,N,0,0,0,20065,VA0070100,Arlington County Police Department,,,,,,
20477,VA1290000,VA1290000,Waynesboro Police Department,Waynesboro,1,City,,,11141,Waynesboro,51,VA,3030,Waynesboro City,51820,A,23396,VAUCR0001,Virginia State Police Criminal Justice Information Services Division,VA,1960,,2016,2013,2016,21384,5,"Cities from 10,000 thru 24,999",M,N,Y,12,12,10,,,,2016,42,11,22980,38.067157,-78.90142
20118,VA0260100,VA0260100,Clintwood Police Department,Clintwood,1,City,,,11022,Clintwood,51,VA,2936,Dickenson,51051,A,23396,VAUCR0001,Virginia State Police Criminal Justice Information Services Division,VA,1981,,2016,2013,2016,1328,7,"Cities under 2,500",L,N,N,12,12,10,,,,2016,4,0,24228,37.137081,-82.349208
20413,VA105SP00,VA105SP00,State Police: Colonial Heights,State Police: Colonial Heights,4,State Police,,,,,51,VA,3668,,,A,23396,VAUCR0001,Virginia State Police Criminal Justice Information Services Division,VA,1975,,2016,2013,2016,0,7,"Cities under 2,500",L,Y,N,12,12,8,,,,2016,1,0,23834,37.261685,-77.396804
20220,VA0550000,VA0550000,Lunenburg County Sheriff's Office,Lunenburg,2,County,,,,,51,VA,2975,Lunenburg,51111,A,23396,VAUCR0001,Virginia State Police Criminal Justice Information Services Division,VA,1960,,2016,2013,2016,9402,8D,"Non-MSA counties under 10,000",L,N,N,12,12,10,,,,2016,13,6,23952,36.945757,-78.242313
20328,VA0830100,VA0830100,Lebanon Police Department,Lebanon,1,City,,,11074,Lebanon,51,VA,3013,Russell,51167,A,23396,VAUCR0001,Virginia State Police Criminal Justice Information Services Division,VA,1975,,2016,2013,2016,3336,6,"Cities from 2,500 thru 9,999",L,N,N,12,12,10,,,,2016,12,1,24266,36.93342,-82.095934
20176,VA041SP00,VA041SP00,State Police: Halifax County,State Police: Halifax County,4,State Police,,,,,51,VA,2957,Halifax,51083,A,23396,VAUCR0001,Virginia State Police Criminal Justice Information Services Division,VA,1973,,2016,2013,2016,0,8D,"Non-MSA counties under 10,000",L,N,N,12,12,10,,,,2016,1,0,24558,36.766461,-78.939614
20238,VA0600100,VA0600100,Blacksburg Police Department,Blacksburg,1,City,,,10996,Blacksburg,51,VA,2984,Montgomery,51121,A,23396,VAUCR0001,Virginia State Police Criminal Justice Information Services Division,VA,1960,,2016,2013,2016,44315,4,"Cities from 25,000 thru 49,999",L,N,Y,12,12,10,,,,2016,61,10,24060,37.174884,-80.387314
20317,VA081SP00,VA081SP00,State Police: Rockbridge County,State Police: Rockbridge County,4,State Police,,,,,51,VA,3011,Rockbridge,51163,A,23396,VAUCR0001,Virginia State Police Criminal Justice Information Services Division,VA,1973,,2016,2013,2016,0,8D,"Non-MSA counties under 10,000",L,N,N,12,12,10,,,,2016,1,0,24578,37.814517,-79.447754
20354,VA0880000,VA0880000,Spotsylvania County Sheriff's Office,Spotsylvania,2,County,,,,,51,VA,3020,Spotsylvania,51177,A,23396,VAUCR0001,Virginia State Police Criminal Justice Information Services Division,VA,1960,,2016,2013,2016,130392,9A,"MSA counties 100,000 or over",L,Y,N,12,12,10,,,,2016,181,49,22553,38.182311,-77.65628
20136,VA0300100,VA0300100,Remington Police Department,Remington,1,City,,,11111,Remington,51,VA,2943,Fauquier,51061,A,23396,VAUCR0001,Virginia State Police Criminal Justice Information Services Division,VA,2008,,2016,2014,2016,628,7,"Cities under 2,500",L,Y,N,12,12,5,,,,2016,1,0,22734,38.744103,-77.821585
20142,VA0320000,VA0320000,Fluvanna County Sheriff's Office,Fluvanna,2,County,,,,,51,VA,2945,Fluvanna,51065,A,23396,VAUCR0001,Virginia State Police Criminal Justice Information Services Division,VA,1960,,2016,2013,2016,26103,9B,"MSA counties from 25,000 thru 99,999",L,Y,N,12,12,10,,,,2016,35,14,22963,37.830576,-78.284435
20327,VA0830000,VA0830000,Russell County Sheriff's Office,Russell,2,County,,,,,51,VA,3013,Russell,51167,A,23396,VAUCR0001,Virginia State Police Criminal Justice Information Services Division,VA,1960,,2016,2013,2016,22830,8C,"Non-MSA counties from 10,000 thru 24,999",L,N,N,12,12,10,,,,2016,35,15,24266,36.93342,-82.095934
20273,VA0710200,VA0710200,Gretna Police Department,Gretna,1,City,,,11053,Gretna,51,VA,2997,Pittsylvania,51143,A,23396,VAUCR0001,Virginia State Police Criminal Justice Information Services Division,VA,1975,,2016,2013,2016,1240,7,"Cities under 2,500",L,N,N,12,12,10,,,,2016,3,0,24557,36.821721,-79.398502
20149,VA0340100,VA0340100,Middletown Police Department,Middletown,1,City,,,11086,Middletown,51,VA,2948,Frederick,51069,A,23396,VAUCR0001,Virginia State Police Criminal Justice Information Services Division,VA,1975,,2016,2013,2016,1331,7,"Cities under 2,500",L,Y,N,12,12,9,,,,2016,3,0,22645,39.203637,-78.263916
20085,VA0140000,VA0140000,Buchanan County Sheriff's Office,Buchanan,2,County,,,,,51,VA,2917,Buchanan,51027,A,23396,VAUCR0001,Virginia State Police Criminal Justice Information Services Division,VA,1960,,2016,2013,2016,21840,8C,"Non-MSA counties from 10,000 thru 24,999",L,N,N,12,12,10,,,,2016,33,13,24614,37.26812,-82.038151
20398,VA098S100,VA098S100,State Police: Poquoson,State Police: Poquoson,4,State Police,,,,,51,VA,3668,,,A,23396,VAUCR0001,Virginia State Police Criminal Justice Information Services Division,VA,1978,,2016,2013,2016,0,7,"Cities under 2,500",L,Y,N,12,12,4,,,,2016,1,0,23187,37.12836,-76.303534
20178,VA0420100,VA0420100,Ashland Police Department,Ashland,1,City,,,10992,Ashland,51,VA,2959,Hanover,51085,A,23396,VAUCR0001,Virginia State Police Criminal Justice Information Services Division,VA,1960,,2016,2013,2016,7353,6,"Cities from 2,500 thru 9,999",L,Y,N,12,12,10,,,,2016,25,3,23005,37.760165,-77.490992
20205,VA0510300,VA0510300,White Stone Police Department,White Stone,1,City,,,11144,White Stone,51,VA,2970,Lancaster,51103,A,23396,VAUCR0001,Virginia State Police Criminal Justice Information Services Division,VA,2007,,2016,2013,2016,343,7,"Cities under 2,500",L,N,N,12,12,10,,,,2013,2,0,22578,37.703831,-76.413199
20446,VA1170100,VA1170100,Elizabeth River Tunnel Commission,Elizabeth River Tunnel Commission,5,Other,,,11092,Norfolk,51,VA,3668,,,A,23396,VAUCR0001,Virginia State Police Criminal Justice Information Services Division,VA,1975,,2016,2014,2000,0,7,"Cities under 2,500",L,Y,N,0,0,0,20445,VA1170000,Norfolk,,,,23523,36.923015,-76.244641
20468,VA123SP00,VA123SP00,State Police: Roanoke,State Police: Roanoke,4,State Police,,,,,51,VA,3668,,,A,23396,VAUCR0001,Virginia State Police Criminal Justice Information Services Division,VA,1975,,2016,2013,2016,0,7,"Cities under 2,500",L,Y,N,12,12,10,,,,2016,1,0,24153,37.278458,-79.958174
20059,VA0050100,VA0050100,Amherst Police Department,Amherst,1,City,,,10989,Amherst,51,VA,2906,Amherst,51009,A,23396,VAUCR0001,Virginia State Police Criminal Justice Information Services Division,VA,1966,,2016,2013,2016,2200,7,"Cities under 2,500",L,Y,N,12,12,10,,,,2016,4,0,24521,37.630362,-79.147848
20454,VA1190300,VA1190300,Central State Hospital,Central State Hospital,6,Other State Agency,,,,,51,VA,3668,,,A,23396,VAUCR0001,Virginia State Police Criminal Justice Information Services Division,VA,1999,,2016,2013,2016,0,7,"Cities under 2,500",L,Y,N,0,5,9,20452,VA1190000,Petersburg,2015,15,1,23803,37.20473,-77.392368
20425,VA1090100,VA1090100,University of Mary Washington,University of Mary Washington,3,University or College,,749,,,51,VA,3668,,,A,23396,VAUCR0001,Virginia State Police Criminal Justice Information Services Division,VA,1977,,2016,2013,,0,7,"Cities under 2,500",L,Y,N,0,0,4,,,,2016,16,6,22401,38.299272,-77.486658
20249,VA0650000,VA0650000,Northampton County Sheriff's Office,Northampton,2,County,,,,,51,VA,2989,Northampton,51131,A,23396,VAUCR0001,Virginia State Police Criminal Justice Information Services Division,VA,1960,,2016,2013,2016,9596,8D,"Non-MSA counties under 10,000",L,N,N,12,12,10,,,,2016,66,18,23347,37.302629,-75.923868
20481,VA1300200,VA1300200,Radford University,Radford University,3,University or College,,487,,,51,VA,3668,,,A,23396,VAUCR0001,Virginia State Police Criminal Justice Information Services Division,VA,1975,,2016,2013,2016,0,7,"Cities under 2,500",L,Y,N,12,12,10,,,,2016,25,7,24142,37.120036,-80.557048
20200,VA0500000,VA0500000,King William County Sheriff's Office,King William,2,County,,,,,51,VA,2969,King William,51101,A,23396,VAUCR0001,Virginia State Police Criminal Justice Information Services Division,VA,1960,,2016,2013,2016,12859,9C,"MSA counties from 10,000 thru 24,999",L,Y,N,12,12,10,,,,2016,19,13,23086,37.70826,-77.091054
20295,VA075S200,VA075S200,State Police: Manassas Park,State Police: Manassas Park,4,State Police,,,,,51,VA,3668,,,A,23396,VAUCR0001,Virginia State Police Criminal Justice Information Services Division,VA,1978,,2016,2013,2016,0,7,"Cities under 2,500",L,Y,N,12,12,2,,,,2016,1,0,22110,38.768991,-77.44868
20357,VA089SP00,VA089SP00,State Police: Stafford County,State Police: Stafford County,4,State Police,,,,,51,VA,3021,Stafford,51179,A,23396,VAUCR0001,Virginia State Police Criminal Justice Information Services Division,VA,1973,,2016,2013,2016,0,9D,"MSA counties under 10,000",L,Y,N,12,12,10,,,,2016,1,0,22408,38.415386,-77.454872
20443,VA1160400,VA1160400,Christopher Newport University,Christopher Newport University,3,University or College,,115,,,51,VA,3668,,,A,23396,VAUCR0001,Virginia State Police Criminal Justice Information Services Division,VA,1980,,2016,2013,2016,0,7,"Cities under 2,500",L,Y,N,12,12,10,,,,2016,18,9,23606,37.075978,-76.521719
20147,VA033SP00,VA033SP00,State Police: Franklin County,State Police: Franklin County,4,State Police,,,,,51,VA,2946,Franklin,51067,A,23396,VAUCR0001,Virginia State Police Criminal Justice Information Services Division,VA,1973,,2016,2013,2016,0,9D,"MSA counties under 10,000",L,Y,N,12,12,10,,,,2016,1,0,24523,36.99235,-79.883959
20269,VA0700000,VA0700000,Patrick County Sheriff's Office,Patrick,2,County,,,,,51,VA,2995,Patrick,51141,A,23396,VAUCR0001,Virginia State Police Criminal Justice Information Services Division,VA,1960,,2016,2013,2016,18162,8C,"Non-MSA counties from 10,000 thru 24,999",L,N,N,12,12,10,,,,2016,54,15,24171,36.667327,-80.286141
20301,VA0780000,VA0780000,Rappahannock County Sheriff's Office,Rappahannock,2,County,,,,,51,VA,3006,Rappahannock,51157,A,23396,VAUCR0001,Virginia State Police Criminal Justice Information Services Division,VA,1960,,2016,2013,2016,7307,9D,"MSA counties under 10,000",L,Y,N,12,12,10,,,,2016,17,1,22747,38.684522,-78.168824
20154,VA0350100,VA0350100,Glen Lyn Police Department,Glen Lyn,1,City,,,11051,Glen Lyn,51,VA,2951,Giles,51071,A,23396,VAUCR0001,Virginia State Police Criminal Justice Information Services Division,VA,1981,,2016,2013,2016,116,7,"Cities under 2,500",L,Y,N,12,12,9,,,,2016,1,0,24093,37.31193,-80.717178
20206,VA051SP00,VA051SP00,State Police: Lancaster County,State Police: Lancaster County,4,State Police,,,,,51,VA,2970,Lancaster,51103,A,23396,VAUCR0001,Virginia State Police Criminal Justice Information Services Division,VA,1973,,2016,2013,2016,0,8D,"Non-MSA counties under 10,000",L,N,N,12,12,7,,,,2016,1,0,22572,37.703831,-76.413199
20103,VA020SP00,VA020SP00,State Police: Charlotte County,State Police: Charlotte County,4,State Police,,,,,51,VA,2924,Charlotte,51037,A,23396,VAUCR0001,Virginia State Police Criminal Justice Information Services Division,VA,1973,,2016,2013,2016,0,8D,"Non-MSA counties under 10,000",L,N,N,12,12,9,,,,2016,1,0,24558,37.014091,-78.661424
20283,VA0740100,VA0740100,Prince George County Police Department,Prince George County Police Department,2,County,,,,,51,VA,3002,Prince George,51149,A,23396,VAUCR0001,Virginia State Police Criminal Justice Information Services Division,VA,1995,,2016,2013,2016,37675,9B,"MSA counties from 25,000 thru 99,999",L,Y,N,12,12,10,,,,2016,54,25,23875,37.187325,-77.220993
20213,VA0530200,VA0530200,Middleburg Police Department,Middleburg,1,City,,,11085,Middleburg,51,VA,2973,Loudoun,51107,A,23396,VAUCR0001,Virginia State Police Criminal Justice Information Services Division,VA,1975,,2016,2013,2016,809,7,"Cities under 2,500",L,Y,N,12,12,10,,,,2016,6,0,20118,39.08113,-77.638857
20101,VA019SP00,VA019SP00,State Police: Charles City County,State Police: Charles City County,4,State Police,,,,,51,VA,2923,Charles City,51036,A,23396,VAUCR0001,Virginia State Police Criminal Justice Information Services Division,VA,1973,,2016,2013,2016,0,9D,"MSA counties under 10,000",L,Y,N,12,12,3,,,,2016,1,0,23181,37.361054,-77.05417
20197,VA048SP00,VA048SP00,State Police: King and Queen County,State Police: King and Queen County,4,State Police,,,,,51,VA,2967,King And Queen,51097,A,23396,VAUCR0001,Virginia State Police Criminal Justice Information Services Division,VA,1973,,2016,2013,2016,0,8D,"Non-MSA counties under 10,000",L,N,N,12,12,4,,,,2016,1,0,23181,37.71437,-76.901863
20480,VA1300100,VA1300100,College of William and Mary,College of William and Mary,3,University or College,,137,,,51,VA,3668,,,A,23396,VAUCR0001,Virginia State Police Criminal Justice Information Services Division,VA,1975,,2016,2013,2016,0,7,"Cities under 2,500",L,Y,N,12,12,10,,,,2016,20,8,23187,37.269524,-76.708165
20060,VA0050200,VA0050200,Central Virginia Training Center,Central Virginia Training Center,6,Other State Agency,,,11079,Lynchburg,51,VA,2906,Amherst,51009,A,23396,VAUCR0001,Virginia State Police Criminal Justice Information Services Division,VA,1977,,2016,2014,2003,0,7,"Cities under 2,500",L,Y,N,0,0,0,20058,VA0050000,Amherst,1993,7,0,24505,37.399016,-79.195458
20346,VA0860300,VA0860300,Chilhowie Police Department,Chilhowie,1,City,,,11016,Chilhowie,51,VA,3017,Smyth,51173,A,23396,VAUCR0001,Virginia State Police Criminal Justice Information Services Division,VA,1975,,2016,2013,2016,1741,7,"Cities under 2,500",L,N,N,12,12,10,,,,2016,6,0,24319,36.842318,-81.539786
20077,VA0110000,VA0110000,Bland County Sheriff's Office,Bland,2,County,,,,,51,VA,2913,Bland,51021,A,23396,VAUCR0001,Virginia State Police Criminal Justice Information Services Division,VA,1960,,2016,2013,2016,6558,8D,"Non-MSA counties under 10,000",L,N,N,12,12,10,,,,2016,10,8,24315,37.130612,-81.125853
20322,VA0820400,VA0820400,Elkton Police Department,Elkton,1,City,,,11036,Elkton,51,VA,3012,Rockingham,51165,A,23396,VAUCR0001,Virginia State Police Criminal Justice Information Services Division,VA,1975,,2016,2013,2016,2806,6,"Cities from 2,500 thru 9,999",L,Y,N,12,12,10,,,,2016,6,1,22827,38.511257,-78.876307
20490,VA131SP00,VA131SP00,State Police: Winchester,State Police: Winchester,4,State Police,,,,,51,VA,3668,,,A,23396,VAUCR0001,Virginia State Police Criminal Justice Information Services Division,VA,1975,,2016,2013,2016,0,7,"Cities under 2,500",L,Y,N,12,12,10,,,,2016,1,0,22655,39.173869,-78.176356
20483,VA1300400,VA1300400,University of Richmond,University of Richmond,3,University or College,,803,,,51,VA,3668,,,A,23396,VAUCR0001,Virginia State Police Criminal Justice Information Services Division,VA,1975,,2016,2013,2016,0,7,"Cities under 2,500",L,Y,N,12,12,10,,,,2016,22,12,23173,37.269524,-76.708165
20201,VA0500200,VA0500200,West Point Police Department,West Point,1,City,,,11143,West Point,51,VA,2969,King William,51101,A,23396,VAUCR0001,Virginia State Police Criminal Justice Information Services Division,VA,1975,,2016,2013,2016,3337,6,"Cities from 2,500 thru 9,999",L,Y,N,12,12,10,,,,2016,9,1,23181,37.70826,-77.091054
20262,VA0680200,VA0680200,Gordonsville Police Department,Gordonsville,1,City,,,11052,Gordonsville,51,VA,2993,Orange,51137,A,23396,VAUCR0001,Virginia State Police Criminal Justice Information Services Division,VA,1975,,2016,2013,2016,1578,7,"Cities under 2,500",L,N,N,12,12,9,,,,2016,7,0,22942,38.250439,-78.00998
20326,VA082SP00,VA082SP00,State Police: Rockingham County,State Police: Rockingham County,4,State Police,,,,,51,VA,3012,Rockingham,51165,A,23396,VAUCR0001,Virginia State Police Criminal Justice Information Services Division,VA,1973,,2016,2013,2016,0,9D,"MSA counties under 10,000",L,Y,N,12,12,10,,,,2016,1,0,22801,38.511257,-78.876307
20182,VA0430300,VA0430300,Alcoholic Beverage Control Commission,Alcoholic Beverage Control Commission,6,Other State Agency,,,,,51,VA,2961,Henrico,51087,A,23396,VAUCR0001,Virginia State Police Criminal Justice Information Services Division,VA,1991,,2016,2013,2016,0,7,"Cities under 2,500",L,Y,N,12,12,10,,,,2016,110,49,23261,37.531399,-77.476009
20116,VA025SP00,VA025SP00,State Police: Cumberland County,State Police: Cumberland County,4,State Police,,,,,51,VA,2934,Cumberland,51049,A,23396,VAUCR0001,Virginia State Police Criminal Justice Information Services Division,VA,1973,,2016,2013,2016,0,8D,"Non-MSA counties under 10,000",L,N,N,12,12,6,,,,2016,1,0,23921,37.520189,-78.252836
20484,VA1300500,VA1300500,Port Authority Norfolk,Port Authority Norfolk,5,Other,,,,,51,VA,3668,,,A,23396,VAUCR0001,Virginia State Police Criminal Justice Information Services Division,VA,1975,,2016,2013,2016,0,7,"Cities under 2,500",L,Y,N,12,12,9,,,,2016,31,14,23505,36.923015,-76.244641
20366,VA0920300,VA0920300,Richlands Police Department,Richlands,1,City,,,11113,Richlands,51,VA,3026,Tazewell,51185,A,23396,VAUCR0001,Virginia State Police Criminal Justice Information Services Division,VA,1960,,2016,2013,2016,5525,6,"Cities from 2,500 thru 9,999",L,N,N,12,12,10,,,,2016,17,5,24641,37.125395,-81.562924
20151,VA0340400,VA0340400,Lord Fairfax Community College,Lord Fairfax Community College,3,University or College,,323,,,51,VA,2948,Frederick,51069,A,23396,VAUCR0001,Virginia State Police Criminal Justice Information Services Division,VA,2011,,2016,2013,2016,0,7,"Cities under 2,500",L,Y,N,12,12,5,,,,2016,4,0,     ,39.203637,-78.263916
20403,VA100SP00,VA100SP00,State Police: Bristol,State Police: Bristol,4,State Police,,,,,51,VA,3668,,,A,23396,VAUCR0001,Virginia State Police Criminal Justice Information Services Division,VA,1976,,2016,2013,2016,0,7,"Cities under 2,500",L,Y,N,12,12,4,,,,2016,1,0,24201,36.616954,-82.157564
20067,VA007SP00,VA007SP00,State Police: Arlington County,State Police: Arlington County,4,State Police,,,,,51,VA,2908,Arlington,51013,A,23396,VAUCR0001,Virginia State Police Criminal Justice Information Services Division,VA,1973,,2016,2013,2016,0,9D,"MSA counties under 10,000",L,Y,N,12,12,4,,,,2016,1,0,22204,38.878337,-77.100703
20229,VA0580200,VA0580200,Chase City Police Department,Chase City,1,City,,,11013,Chase City,51,VA,2982,Mecklenburg,51117,A,23396,VAUCR0001,Virginia State Police Criminal Justice Information Services Division,VA,1960,,2016,2013,2016,2292,7,"Cities under 2,500",L,N,N,12,12,10,,,,2016,9,1,23924,36.687256,-78.368959
20134,VA029SP00,VA029SP00,State Police: Fairfax County,State Police: Fairfax County,4,State Police,,,,,51,VA,2940,Fairfax,51059,A,23396,VAUCR0001,Virginia State Police Criminal Justice Information Services Division,VA,1971,,2016,2013,2016,0,9D,"MSA counties under 10,000",L,Y,N,12,12,10,,,,2016,1,0,22204,38.833742,-77.276117
20141,VA031SP00,VA031SP00,State Police: Floyd County,State Police: Floyd County,4,State Police,,,,,51,VA,2944,Floyd,51063,A,23396,VAUCR0001,Virginia State Police Criminal Justice Information Services Division,VA,1973,,2016,2013,2016,0,9D,"MSA counties under 10,000",L,Y,N,12,12,9,,,,2016,1,0,24153,36.931438,-80.350309
20194,VA0470100,VA0470100,James City County Police Department,James City County Police Department,2,County,,,,,51,VA,2966,James City,51095,A,23396,VAUCR0001,Virginia State Police Criminal Justice Information Services Division,VA,1983,,2016,2013,2016,73648,9B,"MSA counties from 25,000 thru 99,999",L,Y,N,12,12,10,,,,2016,96,6,23187,37.324427,-76.778319
20372,VA093SP00,VA093SP00,State Police: Warren County,State Police: Warren County,4,State Police,,,,,51,VA,3028,Warren,51187,A,23396,VAUCR0001,Virginia State Police Criminal Justice Information Services Division,VA,1973,,2016,2013,2016,0,9D,"MSA counties under 10,000",L,Y,N,12,12,10,,,,2016,1,0,22602,38.908187,-78.207131
20230,VA0580300,VA0580300,Clarksville Police Department,Clarksville,1,City,,,11019,Clarksville,51,VA,2982,Mecklenburg,51117,A,23396,VAUCR0001,Virginia State Police Criminal Justice Information Services Division,VA,1975,,2016,2013,2016,1112,7,"Cities under 2,500",L,N,N,12,12,10,,,,2016,7,1,23927,36.687256,-78.368959
20471,VA1260000,VA1260000,Staunton Police Department,Staunton,1,City,,,11126,Staunton,51,VA,3022,Staunton City,51790,A,23396,VAUCR0001,Virginia State Police Criminal Justice Information Services Division,VA,1960,,2016,2013,2016,24654,5,"Cities from 10,000 thru 24,999",M,N,Y,12,12,10,,,,2016,46,16,24401,38.158056,-79.061501
20052,VA002SP00,VA002SP00,State Police: Albemarle County,State Police: Albemarle County,4,State Police,,,,,51,VA,2902,Albemarle,51003,A,23396,VAUCR0001,Virginia State Police Criminal Justice Information Services Division,VA,1973,,2016,2013,2016,0,9D,"MSA counties under 10,000",L,Y,N,12,12,7,,,,2016,1,0,22903,38.024184,-78.553506
20386,VA0960400,VA0960400,Pound Police Department,Pound,1,City,,,11106,Pound,51,VA,3034,Wise,51195,A,23396,VAUCR0001,Virginia State Police Criminal Justice Information Services Division,VA,1975,,2016,2013,2016,967,7,"Cities under 2,500",L,N,N,12,12,9,,,,2016,5,0,24279,36.974561,-82.62156
20126,VA0280200,VA0280200,Tappahannock Police Department,Tappahannock,1,City,,,11130,Tappahannock,51,VA,2939,Essex,51057,A,23396,VAUCR0001,Virginia State Police Criminal Justice Information Services Division,VA,1975,,2016,2013,2016,2378,7,"Cities under 2,500",L,N,N,12,12,10,,,,2016,9,1,22560,37.93948,-76.941871
20155,VA0350200,VA0350200,Pearisburg Police Department,Pearisburg,1,City,,,11099,Pearisburg,51,VA,2951,Giles,51071,A,23396,VAUCR0001,Virginia State Police Criminal Justice Information Services Division,VA,1975,,2016,2013,2016,2676,6,"Cities from 2,500 thru 9,999",L,Y,N,12,12,10,,,,2016,7,0,24134,37.31193,-80.717178
20408,VA1030000,VA1030000,Chesapeake Police Department,Chesapeake,1,City,,,11015,Chesapeake,51,VA,2926,Chesapeake City,51550,A,23396,VAUCR0001,Virginia State Police Criminal Justice Information Services Division,VA,1963,,2016,2013,2016,235273,2,"Cities from 100,000 thru 249,000",M,N,N,12,12,10,,,,2016,387,114,23322,36.679376,-76.301788
20310,VA080S100,VA080S100,State Police: Salem,State Police: Salem,4,State Police,,,,,51,VA,3668,,,A,23396,VAUCR0001,Virginia State Police Criminal Justice Information Services Division,VA,1975,,2016,2013,2016,0,7,"Cities under 2,500",L,Y,N,12,12,5,,,,2016,1,0,24153,37.285333,-80.055241
20438,VA114SP00,VA114SP00,State Police: Lynchburg,State Police: Lynchburg,4,State Police,,,,,51,VA,3668,,,A,23396,VAUCR0001,Virginia State Police Criminal Justice Information Services Division,VA,1975,,2016,2013,2016,0,7,"Cities under 2,500",L,Y,N,12,12,8,,,,2016,1,0,24505,37.399016,-79.195458
20329,VA0830200,VA0830200,Honaker Police Department,Honaker,1,City,,,11063,Honaker,51,VA,3013,Russell,51167,A,23396,VAUCR0001,Virginia State Police Criminal Justice Information Services Division,VA,1981,,2016,2013,2016,1388,7,"Cities under 2,500",L,N,N,12,12,10,,,,2016,3,1,24260,36.93342,-82.095934
20431,VA1110400,VA1110400,Hampton University,Hampton University,3,University or College,,251,,,51,VA,3668,,,A,23396,VAUCR0001,Virginia State Police Criminal Justice Information Services Division,VA,1991,,2016,2013,,0,7,"Cities under 2,500",L,Y,N,7,7,9,,,,2016,22,22,23669,37.04803,-76.297149
20244,VA061SP00,VA061SP00,Nansemond State Police,Nansemond State Police,4,State Police,,,,,51,VA,3023,Suffolk City,51800,A,23396,VAUCR0001,Virginia State Police Criminal Justice Information Services Division,VA,1973,2015,2016,2014,2014,0,8D,"Non-MSA counties under 10,000",L,N,N,0,0,0,20474,VA127SP00,State Police: Suffolk,,,,23434,36.697157,-76.634781
20316,VA081S200,VA081S200,State Police: Lexington,State Police: Lexington,4,State Police,,,,,51,VA,3668,,,A,23396,VAUCR0001,Virginia State Police Criminal Justice Information Services Division,VA,1975,,2016,2013,2016,0,7,"Cities under 2,500",L,N,N,12,12,2,,,,2016,1,0,24578,37.782332,-79.44432
20331,VA083SP00,VA083SP00,State Police: Russell County,State Police: Russell County,4,State Police,,,,,51,VA,3013,Russell,51167,A,23396,VAUCR0001,Virginia State Police Criminal Justice Information Services Division,VA,1973,,2016,2013,2016,0,8D,"Non-MSA counties under 10,000",L,N,N,12,12,10,,,,2016,1,0,24637,36.93342,-82.095934
20251,VA0650200,VA0650200,Exmore Police Department,Exmore,1,City,,,11038,Exmore,51,VA,2989,Northampton,51131,A,23396,VAUCR0001,Virginia State Police Criminal Justice Information Services Division,VA,1980,,2016,2013,2016,1440,7,"Cities under 2,500",L,N,N,12,12,10,,,,2016,6,0,23350,37.302629,-75.923868
20253,VA0660000,VA0660000,Northumberland County Sheriff's Office,Northumberland,2,County,,,,,51,VA,2990,Northumberland,51133,A,23396,VAUCR0001,Virginia State Police Criminal Justice Information Services Division,VA,1960,,2016,2013,2016,12138,8C,"Non-MSA counties from 10,000 thru 24,999",L,N,N,12,12,10,,,,2016,22,11,22473,37.856974,-76.379687
20184,VA043SP00,VA043SP00,State Police: Henrico County,State Police: Henrico County,4,State Police,,,,,51,VA,2961,Henrico,51087,A,23396,VAUCR0001,Virginia State Police Criminal Justice Information Services Division,VA,1971,,2016,2013,2016,0,9D,"MSA counties under 10,000",L,Y,N,12,12,10,,,,2016,1,0,23223,37.43752,-77.300333
20093,VA016SP00,VA016SP00,State Police: Campbell County,State Police: Campbell County,4,State Police,,,,,51,VA,2920,Campbell,51031,A,23396,VAUCR0001,Virginia State Police Criminal Justice Information Services Division,VA,1971,,2016,2013,2016,0,9D,"MSA counties under 10,000",L,Y,N,12,12,10,,,,2016,1,0,24502,37.210151,-79.095428
20234,VA0590000,VA0590000,Middlesex County Sheriff's Office,Middlesex,2,County,,,,,51,VA,2983,Middlesex,51119,A,23396,VAUCR0001,Virginia State Police Criminal Justice Information Services Division,VA,1960,,2016,2013,2016,10601,8C,"Non-MSA counties from 10,000 thru 24,999",L,N,N,12,12,9,,,,2016,30,12,23149,37.606975,-76.528082
20298,VA0770100,VA0770100,Pulaski Police Department,Pulaski,1,City,,,11107,Pulaski,51,VA,3004,Pulaski,51155,A,23396,VAUCR0001,Virginia State Police Criminal Justice Information Services Division,VA,1960,,2016,2013,2016,8869,6,"Cities from 2,500 thru 9,999",L,Y,N,12,12,10,,,,2016,27,4,24301,37.063385,-80.713444
20308,VA0800200,VA0800200,Vinton Police Department,Vinton,1,City,,,11136,Vinton,51,VA,3009,Roanoke,51161,A,23396,VAUCR0001,Virginia State Police Criminal Justice Information Services Division,VA,1960,,2016,2013,2016,8210,6,"Cities from 2,500 thru 9,999",L,Y,N,12,12,10,,,,2016,23,2,24179,37.331077,-80.19011
20081,VA012SP00,VA012SP00,State Police: Botetourt County,State Police: Botetourt County,4,State Police,,,,,51,VA,2914,Botetourt,51023,A,23396,VAUCR0001,Virginia State Police Criminal Justice Information Services Division,VA,1973,,2016,2013,2016,0,9D,"MSA counties under 10,000",L,Y,N,12,12,10,,,,2016,1,0,24578,37.553005,-79.804564
20073,VA0100000,VA0100000,Bedford County Sheriff's Office,Bedford,2,County,,,,,51,VA,2911,Bedford,51019,A,23396,VAUCR0001,Virginia State Police Criminal Justice Information Services Division,VA,1960,,2016,2013,2016,70358,9B,"MSA counties from 25,000 thru 99,999",L,Y,N,12,12,10,,,,2016,83,8,24523,37.312408,-79.527947
20130,VA0290200,VA0290200,Herndon Police Department,Herndon,1,City,,,11061,Herndon,51,VA,2940,Fairfax,51059,A,23396,VAUCR0001,Virginia State Police Criminal Justice Information Services Division,VA,1973,,2016,2013,2016,24849,5,"Cities from 10,000 thru 24,999",L,Y,N,12,12,10,,,,2016,55,15,20172,38.833742,-77.276117
20248,VA063SP00,VA063SP00,State Police: New Kent County,State Police: New Kent County,4,State Police,,,,,51,VA,2986,New Kent,51127,A,23396,VAUCR0001,Virginia State Police Criminal Justice Information Services Division,VA,1973,,2016,2013,2016,0,9D,"MSA counties under 10,000",L,Y,N,12,12,8,,,,2016,1,0,23181,37.502909,-76.982857
20204,VA0510100,VA0510100,Kilmarnock Police Department,Kilmarnock,1,City,,,11071,Kilmarnock,51,VA,2970,Lancaster,51103,A,23396,VAUCR0001,Virginia State Police Criminal Justice Information Services Division,VA,1981,,2016,2013,2016,1437,7,"Cities under 2,500",L,N,N,12,12,10,,,,2016,5,0,22482,37.703831,-76.413199
20439,VA1150000,VA1150000,Martinsville Police Department,Martinsville,1,City,,,11083,Martinsville,51,VA,2980,Martinsville City,51690,A,23396,VAUCR0001,Virginia State Police Criminal Justice Information Services Division,VA,1960,,2016,2013,2016,13667,5,"Cities from 10,000 thru 24,999",M,N,N,12,12,10,,,,2016,46,5,24112,36.683527,-79.863647
20072,VA009SP00,VA009SP00,State Police: Bath County,State Police: Bath County,4,State Police,,,,,51,VA,2910,Bath,51017,A,23396,VAUCR0001,Virginia State Police Criminal Justice Information Services Division,VA,1973,,2016,2013,2016,0,8D,"Non-MSA counties under 10,000",L,N,N,12,12,7,,,,2016,1,0,24422,38.068988,-79.732898
20430,VA1110300,VA1110300,Thomas Nelson Community College,Thomas Nelson Community College,3,University or College,,665,,,51,VA,3668,,,A,23396,VAUCR0001,Virginia State Police Criminal Justice Information Services Division,VA,1980,,2016,2013,2016,0,7,"Cities under 2,500",L,Y,N,12,12,7,,,,2016,8,2,23670,37.04803,-76.297149
20330,VA0830400,VA0830400,Castlewood Police Department,Castlewood,1,City,,,11010,Castlewood,51,VA,3013,Russell,51167,A,23396,VAUCR0001,Virginia State Police Criminal Justice Information Services Division,VA,1996,,2016,2014,,0,7,"Cities under 2,500",L,N,N,0,0,0,20327,VA0830000,Russell,,,,24224,36.93342,-82.095934
20064,VA006SP00,VA006SP00,State Police: Appomattox County,State Police: Appomattox County,4,State Police,,,,,51,VA,2907,Appomattox,51011,A,23396,VAUCR0001,Virginia State Police Criminal Justice Information Services Division,VA,1973,,2016,2013,2016,0,9D,"MSA counties under 10,000",L,Y,N,12,12,8,,,,2016,1,0,24522,37.370725,-78.81094
20061,VA005SP00,VA005SP00,State Police: Amherst County,State Police: Amherst County,4,State Police,,,,,51,VA,2906,Amherst,51009,A,23396,VAUCR0001,Virginia State Police Criminal Justice Information Services Division,VA,1971,,2016,2013,2016,0,9D,"MSA counties under 10,000",L,Y,N,12,12,9,,,,2016,1,0,24502,37.630362,-79.147848
20207,VA0520000,VA0520000,Lee County Sheriff's Office,Lee,2,County,,,,,51,VA,2971,Lee,51105,A,23396,VAUCR0001,Virginia State Police Criminal Justice Information Services Division,VA,1960,,2016,2013,2016,21951,8C,"Non-MSA counties from 10,000 thru 24,999",L,N,N,12,12,10,,,,2016,34,0,24263,36.701721,-83.130112
20411,VA104SP00,VA104SP00,State Police: Clifton Forge,State Police: Clifton Forge,4,State Police,,,,,51,VA,3668,,,A,23396,VAUCR0001,Virginia State Police Criminal Justice Information Services Division,VA,1976,,2016,2014,2015,0,7,"Cities under 2,500",L,N,N,12,12,3,20410,VA1040000,Clifton Forge,2016,1,0,24422,37.787905,-80.008669
20102,VA0200000,VA0200000,Charlotte County Sheriff's Office,Charlotte,2,County,,,,,51,VA,2924,Charlotte,51037,A,23396,VAUCR0001,Virginia State Police Criminal Justice Information Services Division,VA,1960,,2016,2013,2016,12114,8C,"Non-MSA counties from 10,000 thru 24,999",L,N,N,12,12,10,,,,2016,33,3,23923,37.014091,-78.661424
20074,VA0100100,VA0100100,Bedford Police Department,Bedford,1,City,,,10993,Bedford,51,VA,2911,Bedford,51019,A,23396,VAUCR0001,Virginia State Police Criminal Justice Information Services Division,VA,1960,,2016,2013,2016,6437,6,"Cities from 2,500 thru 9,999",L,Y,N,12,12,10,,,,2016,23,2,24523,37.338156,-79.520705
20190,VA0460100,VA0460100,Smithfield Police Department,Smithfield,1,City,,,11122,Smithfield,51,VA,2965,Isle Of Wight,51093,A,23396,VAUCR0001,Virginia State Police Criminal Justice Information Services Division,VA,1975,,2016,2013,2016,8336,6,"Cities from 2,500 thru 9,999",L,Y,N,12,12,10,,,,2016,21,4,23430,36.901418,-76.707569
20203,VA0510000,VA0510000,Lancaster County Sheriff's Office,Lancaster,2,County,,,,,51,VA,2970,Lancaster,51103,A,23396,VAUCR0001,Virginia State Police Criminal Justice Information Services Division,VA,1960,,2016,2013,2016,9211,8D,"Non-MSA counties under 10,000",L,N,N,12,12,10,,,,2016,29,9,22503,37.703831,-76.413199
20345,VA0860200,VA0860200,Saltville Police Department,Saltville,1,City,,,11120,Saltville,51,VA,3017,Smyth,51173,A,23396,VAUCR0001,Virginia State Police Criminal Justice Information Services Division,VA,1960,,2016,2013,2016,2034,7,"Cities under 2,500",L,N,N,12,12,10,,,,2016,6,0,24370,36.842318,-81.539786
20056,VA0040000,VA0040000,Amelia County Sheriff's Office,Amelia,2,County,,,,,51,VA,2905,Amelia,51007,A,23396,VAUCR0001,Virginia State Police Criminal Justice Information Services Division,VA,1960,,2016,2013,2016,12850,9C,"MSA counties from 10,000 thru 24,999",L,Y,N,12,12,10,,,,2016,17,11,23002,37.331927,-77.977462
20449,VA117SP00,VA117SP00,State Police: Norfolk,State Police: Norfolk,4,State Police,,,,,51,VA,3668,,,A,23396,VAUCR0001,Virginia State Police Criminal Justice Information Services Division,VA,1975,,2016,2013,2016,0,7,"Cities under 2,500",L,Y,N,12,12,10,,,,2016,1,0,23506,36.923015,-76.244641
20112,VA0240000,VA0240000,Culpeper County Sheriff's Office,Culpeper,2,County,,,,,51,VA,2933,Culpeper,51047,A,23396,VAUCR0001,Virginia State Police Criminal Justice Information Services Division,VA,1960,,2016,2013,2016,32043,9B,"MSA counties from 25,000 thru 99,999",L,Y,N,12,12,10,,,,2016,82,14,22701,38.48593,-77.956476
20179,VA042SP00,VA042SP00,State Police: Hanover County,State Police: Hanover County,4,State Police,,,,,51,VA,2959,Hanover,51085,A,23396,VAUCR0001,Virginia State Police Criminal Justice Information Services Division,VA,1971,,2016,2013,2016,0,9D,"MSA counties under 10,000",L,Y,N,12,12,10,,,,2016,1,0,23005,37.760165,-77.490992
20086,VA0140100,VA0140100,Grundy Police Department,Grundy,1,City,,,11055,Grundy,51,VA,2917,Buchanan,51027,A,23396,VAUCR0001,Virginia State Police Criminal Justice Information Services Division,VA,1975,,2016,2013,2016,981,7,"Cities under 2,500",L,N,N,12,12,9,,,,2016,6,0,24614,37.26812,-82.038151
20373,VA0940000,VA0940000,Washington County Sheriff's Office,Washington,2,County,,,,,51,VA,3029,Washington,51191,A,23396,VAUCR0001,Virginia State Police Criminal Justice Information Services Division,VA,1960,,2016,2013,2016,43945,9B,"MSA counties from 25,000 thru 99,999",L,Y,N,12,12,10,,,,2016,59,21,24212,36.747831,-81.950316
20082,VA0130000,VA0130000,Brunswick County Sheriff's Office,Brunswick,2,County,,,,,51,VA,2916,Brunswick,51025,A,23396,VAUCR0001,Virginia State Police Criminal Justice Information Services Division,VA,1960,,2016,2013,2016,15223,8C,"Non-MSA counties from 10,000 thru 24,999",L,N,N,12,12,10,,,,2016,27,11,23868,36.764531,-77.860916
20250,VA0650100,VA0650100,Cape Charles Police Department,Cape Charles,1,City,,,11009,Cape Charles,51,VA,2989,Northampton,51131,A,23396,VAUCR0001,Virginia State Police Criminal Justice Information Services Division,VA,1960,,2016,2013,2016,985,7,"Cities under 2,500",L,N,N,12,12,10,,,,2016,3,0,23310,37.302629,-75.923868
20132,VA0290400,VA0290400,George Mason University,George Mason University,3,University or College,,231,,,51,VA,2940,Fairfax,51059,A,23396,VAUCR0001,Virginia State Police Criminal Justice Information Services Division,VA,1980,,2016,2013,2016,0,7,"Cities under 2,500",L,Y,N,12,12,10,,,,2016,41,9,22030,38.853183,-77.299025
20166,VA0380200,VA0380200,Independence Police Department,Independence,1,City,,,11067,Independence,51,VA,2954,Grayson,51077,A,23396,VAUCR0001,Virginia State Police Criminal Justice Information Services Division,VA,1981,,2016,2013,2016,922,7,"Cities under 2,500",L,N,N,12,12,9,,,,2016,2,0,24348,36.656303,-81.225337
20407,VA102SP00,VA102SP00,State Police: Charlottesville,State Police: Charlottesville,4,State Police,,,,,51,VA,3668,,,A,23396,VAUCR0001,Virginia State Police Criminal Justice Information Services Division,VA,1975,,2016,2013,2016,0,7,"Cities under 2,500",L,Y,N,12,12,4,,,,2016,1,0,22901,38.037658,-78.485381
20214,VA0530300,VA0530300,Purcellville Police Department,Purcellville,1,City,,,11108,Purcellville,51,VA,2973,Loudoun,51107,A,23396,VAUCR0001,Virginia State Police Criminal Justice Information Services Division,VA,1975,,2016,2013,2016,9235,6,"Cities from 2,500 thru 9,999",L,Y,N,12,12,10,,,,2016,14,2,20132,39.08113,-77.638857
20075,VA010S100,VA010S100,State Police: Bedford,State Police: Bedford,4,State Police,,,,,51,VA,2911,Bedford,51019,A,23396,VAUCR0001,Virginia State Police Criminal Justice Information Services Division,VA,1978,,2016,2013,2015,0,7,"Cities under 2,500",L,Y,N,12,12,3,20074,VA0100100,Bedford,2016,1,0,24523,37.338156,-79.520705
20172,VA040S100,VA040S100,State Police: Emporia,State Police: Emporia,4,State Police,,,,,51,VA,3668,,,A,23396,VAUCR0001,Virginia State Police Criminal Justice Information Services Division,VA,1975,,2016,2013,2016,0,7,"Cities under 2,500",L,N,N,12,12,4,,,,2016,1,0,23847,36.696182,-77.535975
20192,VA046SP00,VA046SP00,State Police: Isle of Wight County,State Police: Isle of Wight County,4,State Police,,,,,51,VA,2965,Isle Of Wight,51093,A,23396,VAUCR0001,Virginia State Police Criminal Justice Information Services Division,VA,1973,,2016,2013,2016,0,9D,"MSA counties under 10,000",L,Y,N,12,12,9,,,,2016,1,0,23837,36.901418,-76.707569
20278,VA0730000,VA0730000,Prince Edward County Sheriff's Office,Prince Edward,2,County,,,,,51,VA,3001,Prince Edward,51147,A,23396,VAUCR0001,Virginia State Police Criminal Justice Information Services Division,VA,1960,,2016,2013,2016,15232,8C,"Non-MSA counties from 10,000 thru 24,999",L,N,N,12,12,9,,,,2016,31,0,23901,37.224881,-78.432957
20196,VA0480000,VA0480000,King and Queen County Sheriff's Office,King and Queen,2,County,,,,,51,VA,2967,King And Queen,51097,A,23396,VAUCR0001,Virginia State Police Criminal Justice Information Services Division,VA,1960,,2016,2013,2016,7208,8D,"Non-MSA counties under 10,000",L,N,N,12,12,10,,,,2016,12,8,23085,37.71437,-76.901863
20242,VA0610000,VA0610000,Nansemond County Sheriff's Office,Nansemond,2,County,,,,,51,VA,3023,Suffolk City,51800,A,23396,VAUCR0001,Virginia State Police Criminal Justice Information Services Division,VA,1960,2015,2016,2014,1985,0,8D,"Non-MSA counties under 10,000",L,N,N,0,0,0,20473,VA1270000,Suffolk,1973,22,5,23434,36.697157,-76.634781
20286,VA0750000,VA0750000,Prince William County Sheriff's Office,Prince William,2,County,,,,,51,VA,3003,Prince William,51153,A,23396,VAUCR0001,Virginia State Police Criminal Justice Information Services Division,VA,1960,,2016,2014,1997,0,9D,"MSA counties under 10,000",L,Y,N,0,0,0,20289,VA0750300,Prince William County Police Department,1974,98,20,20110,38.701119,-77.479579
20186,VA044SP00,VA044SP00,State Police: Henry County,State Police: Henry County,4,State Police,,,,,51,VA,2962,Henry,51089,A,23396,VAUCR0001,Virginia State Police Criminal Justice Information Services Division,VA,1973,,2016,2013,2016,0,8D,"Non-MSA counties under 10,000",L,N,N,12,12,10,,,,2016,1,0,24115,36.620607,-79.980673
20478,VA129SP00,VA129SP00,State Police: Waynesboro,State Police: Waynesboro,4,State Police,,,,,51,VA,3668,,,A,23396,VAUCR0001,Virginia State Police Criminal Justice Information Services Division,VA,1976,,2016,2013,2016,0,7,"Cities under 2,500",L,Y,N,12,12,4,,,,2016,1,0,22980,38.067157,-78.90142
20241,VA060SP00,VA060SP00,State Police: Montgomery County,State Police: Montgomery County,4,State Police,,,,,51,VA,2984,Montgomery,51121,A,23396,VAUCR0001,Virginia State Police Criminal Justice Information Services Division,VA,1973,,2016,2013,2016,0,9D,"MSA counties under 10,000",L,Y,N,12,12,10,,,,2016,1,0,24153,37.174884,-80.387314
20465,VA122SP00,VA122SP00,State Police: Richmond,State Police: Richmond,4,State Police,,,,,51,VA,3668,,,A,23396,VAUCR0001,Virginia State Police Criminal Justice Information Services Division,VA,1975,,2016,2013,2016,0,7,"Cities under 2,500",L,Y,N,12,12,10,,,,2016,1,0,23223,37.531399,-77.476009
20167,VA038SP00,VA038SP00,State Police: Grayson County,State Police: Grayson County,4,State Police,,,,,51,VA,2954,Grayson,51077,A,23396,VAUCR0001,Virginia State Police Criminal Justice Information Services Division,VA,1973,,2016,2013,2016,0,8D,"Non-MSA counties under 10,000",L,N,N,12,12,8,,,,2016,1,0,24333,36.656303,-81.225337
20350,VA0870200,VA0870200,Courtland Police Department,Courtland,1,City,,,11026,Courtland,51,VA,3019,Southampton,51175,A,23396,VAUCR0001,Virginia State Police Criminal Justice Information Services Division,VA,1968,,2016,2014,2004,1239,7,"Cities under 2,500",L,N,N,0,0,2,20348,VA0870000,Southampton,2008,1,2,23837,36.720173,-77.103856
20325,VA0820700,VA0820700,Timberville Police Department,Timberville,1,City,,,11132,Timberville,51,VA,3012,Rockingham,51165,A,23396,VAUCR0001,Virginia State Police Criminal Justice Information Services Division,VA,1998,,2016,2013,2016,2601,6,"Cities from 2,500 thru 9,999",L,Y,N,12,12,10,,,,2016,6,0,22853,38.511257,-78.876307
20260,VA0680000,VA0680000,Orange County Sheriff's Office,Orange,2,County,,,,,51,VA,2993,Orange,51137,A,23396,VAUCR0001,Virginia State Police Criminal Justice Information Services Division,VA,1960,,2016,2013,2016,28803,8B,"Non-MSA counties from 25,000 thru 99,999",L,N,N,12,12,10,,,,2016,40,9,22960,38.250439,-78.00998
20333,VA0840100,VA0840100,Gate City Police Department,Gate City,1,City,,,11048,Gate City,51,VA,3015,Scott,51169,A,23396,VAUCR0001,Virginia State Police Criminal Justice Information Services Division,VA,1981,,2016,2013,2016,1959,7,"Cities under 2,500",L,Y,N,12,12,10,,,,2016,5,0,24251,36.712778,-82.613627
20215,VA053SP00,VA053SP00,State Police: Loudoun County,State Police: Loudoun County,4,State Police,,,,,51,VA,2973,Loudoun,51107,A,23396,VAUCR0001,Virginia State Police Criminal Justice Information Services Division,VA,1971,,2016,2013,2016,0,9D,"MSA counties under 10,000",L,Y,N,12,12,10,,,,2016,1,0,20175,39.08113,-77.638857
20257,VA0670200,VA0670200,Crewe Police Department,Crewe,1,City,,,11028,Crewe,51,VA,2992,Nottoway,51135,A,23396,VAUCR0001,Virginia State Police Criminal Justice Information Services Division,VA,1975,,2016,2013,2016,2272,7,"Cities under 2,500",L,N,N,12,12,10,,,,2016,5,1,23930,37.143695,-78.052162
20384,VA0960200,VA0960200,Big Stone Gap Police Department,Big Stone Gap,1,City,,,10995,Big Stone Gap,51,VA,3034,Wise,51195,A,23396,VAUCR0001,Virginia State Police Criminal Justice Information Services Division,VA,1960,,2016,2013,2016,5421,6,"Cities from 2,500 thru 9,999",L,N,N,12,12,10,,,,2016,13,1,24219,36.974561,-82.62156
20169,VA039SP00,VA039SP00,State Police: Greene County,State Police: Greene County,4,State Police,,,,,51,VA,2955,Greene,51079,A,23396,VAUCR0001,Virginia State Police Criminal Justice Information Services Division,VA,1973,,2016,2013,2016,0,9D,"MSA counties under 10,000",L,Y,N,12,12,8,,,,2016,1,0,22903,38.297981,-78.470163
20291,VA0750500,VA0750500,Haymarket Police Department,Haymarket,1,City,,,11059,Haymarket,51,VA,3003,Prince William,51153,A,23396,VAUCR0001,Virginia State Police Criminal Justice Information Services Division,VA,1999,,2016,2013,2016,2020,7,"Cities under 2,500",L,Y,N,12,12,10,,,,2016,6,1,20169,38.701119,-77.479579
20049,VA0020000,VA0020000,Albemarle County Sheriff's Office,Albemarle,2,County,,,,,51,VA,2902,Albemarle,51003,A,23396,VAUCR0001,Virginia State Police Criminal Justice Information Services Division,VA,1960,,2016,2014,1999,0,9D,"MSA counties under 10,000",L,Y,N,0,0,0,20051,VA0020300,Albemarle County Police Department,1983,40,6,22902,38.037658,-78.485381
20360,VA0910000,VA0910000,Sussex County Sheriff's Office,Sussex,2,County,,,,,51,VA,3025,Sussex,51183,A,23396,VAUCR0001,Virginia State Police Criminal Justice Information Services Division,VA,1960,,2016,2013,2016,9614,9D,"MSA counties under 10,000",L,Y,N,12,12,10,,,,2016,43,5,23884,36.926645,-77.259732
20421,VA1085000,VA1085000,Franklin Police Department,Franklin,1,City,,,11043,Franklin,51,VA,2947,Franklin City,51620,A,23396,VAUCR0001,Virginia State Police Criminal Justice Information Services Division,VA,1995,,2016,2013,2016,8489,6,"Cities from 2,500 thru 9,999",M,N,N,12,12,10,,,,2016,25,12,23851,36.684014,-76.941396
20472,VA126SP00,VA126SP00,State Police: Staunton,State Police: Staunton,4,State Police,,,,,51,VA,3668,,,A,23396,VAUCR0001,Virginia State Police Criminal Justice Information Services Division,VA,1976,,2016,2013,2016,0,7,"Cities under 2,500",L,Y,N,12,12,3,,,,2016,1,0,24401,38.158056,-79.061501
20429,VA1110000,VA1110000,Hampton Police Department,Hampton,1,City,,,11057,Hampton,51,VA,2958,Hampton City,51650,A,23396,VAUCR0001,Virginia State Police Criminal Justice Information Services Division,VA,1960,,2016,2013,2016,136381,2,"Cities from 100,000 thru 249,000",M,N,Y,12,12,10,,,,2016,271,122,23669,37.04803,-76.297149
20475,VA1280000,VA1280000,Virginia Beach Police Department,Virginia Beach,1,City,,,11137,Virginia Beach,51,VA,3027,Virginia Beach City,51810,A,23396,VAUCR0001,Virginia State Police Criminal Justice Information Services Division,VA,1960,,2016,2013,2016,452797,1C,"Cities from 250,000 thru 499,999",M,N,Y,12,12,10,,,,2016,779,172,23456,36.779322,-76.02402
20146,VA0330300,VA0330300,Ferrum College,Ferrum College,3,University or College,,206,,,51,VA,2946,Franklin,51067,A,23396,VAUCR0001,Virginia State Police Criminal Justice Information Services Division,VA,1999,,2016,2013,2016,0,7,"Cities under 2,500",L,Y,N,12,12,9,,,,2016,8,0,24088,36.99235,-79.883959
20358,VA0900000,VA0900000,Surry County Sheriff's Office,Surry,2,County,,,,,51,VA,3024,Surry,51181,A,23396,VAUCR0001,Virginia State Police Criminal Justice Information Services Division,VA,1960,,2016,2013,2016,6706,8D,"Non-MSA counties under 10,000",L,N,N,12,12,10,,,,2016,11,10,23883,37.119761,-76.880172
20252,VA065SP00,VA065SP00,State Police: Northampton County,State Police: Northampton County,4,State Police,,,,,51,VA,2989,Northampton,51131,A,23396,VAUCR0001,Virginia State Police Criminal Justice Information Services Division,VA,1973,,2016,2013,2016,0,8D,"Non-MSA counties under 10,000",L,N,N,12,12,10,,,,2016,1,0,23347,37.302629,-75.923868
20281,VA073SP00,VA073SP00,State Police: Prince Edward County,State Police: Prince Edward County,4,State Police,,,,,51,VA,3001,Prince Edward,51147,A,23396,VAUCR0001,Virginia State Police Criminal Justice Information Services Division,VA,1973,,2016,2013,2016,0,8D,"Non-MSA counties under 10,000",L,N,N,12,12,7,,,,2016,1,0,24522,37.224881,-78.432957
20161,VA036SP00,VA036SP00,State Police: Gloucester County,State Police: Gloucester County,4,State Police,,,,,51,VA,2952,Gloucester,51073,A,23396,VAUCR0001,Virginia State Police Criminal Justice Information Services Division,VA,1973,,2016,2013,2016,0,9D,"MSA counties under 10,000",L,Y,N,12,12,10,,,,2016,1,0,23061,37.403541,-76.523505
20187,VA0450000,VA0450000,Highland County Sheriff's Office,Highland,2,County,,,,,51,VA,2963,Highland,51091,A,23396,VAUCR0001,Virginia State Police Criminal Justice Information Services Division,VA,1960,,2016,2013,2016,2231,8D,"Non-MSA counties under 10,000",L,N,N,12,12,7,,,,2016,7,5,24465,38.356672,-79.567958
20369,VA092SP00,VA092SP00,State Police: Tazewell County,State Police: Tazewell County,4,State Police,,,,,51,VA,3026,Tazewell,51185,A,23396,VAUCR0001,Virginia State Police Criminal Justice Information Services Division,VA,1973,,2016,2013,2016,0,8D,"Non-MSA counties under 10,000",L,N,N,12,12,9,,,,2016,1,0,24637,37.125395,-81.562924
20340,VA0850400,VA0850400,Strasburg Police Department,Strasburg,1,City,,,11128,Strasburg,51,VA,3016,Shenandoah,51171,A,23396,VAUCR0001,Virginia State Police Criminal Justice Information Services Division,VA,1975,,2016,2013,2016,6598,6,"Cities from 2,500 thru 9,999",L,N,N,12,12,10,,,,2016,17,2,22657,38.856204,-78.573987
20284,VA0740200,VA0740200,Richard Bland College,Richard Bland College,3,University or College,,494,,,51,VA,3668,,,A,23396,VAUCR0001,Virginia State Police Criminal Justice Information Services Division,VA,2009,,2016,2013,2016,0,7,"Cities under 2,500",L,Y,N,12,12,6,,,,2016,4,1,23805,37.20473,-77.392368
20076,VA010SP00,VA010SP00,State Police: Bedford County,State Police: Bedford County,4,State Police,,,,,51,VA,2911,Bedford,51019,A,23396,VAUCR0001,Virginia State Police Criminal Justice Information Services Division,VA,1973,,2016,2013,2016,0,9D,"MSA counties under 10,000",L,Y,N,12,12,10,,,,2016,1,0,24523,37.312408,-79.527947
20289,VA0750300,VA0750300,Prince William County Police Department,Prince William County Police Department,2,County,,,,,51,VA,3003,Prince William,51153,A,23396,VAUCR0001,Virginia State Police Criminal Justice Information Services Division,VA,1960,,2016,2013,2016,446574,9A,"MSA counties 100,000 or over",L,Y,N,12,12,10,,,,2016,611,133,22192,38.701119,-77.479579
20352,VA087S100,VA087S100,Franklin State Police,Franklin State Police,4,State Police,,,,,51,VA,3668,,,A,23396,VAUCR0001,Virginia State Police Criminal Justice Information Services Division,VA,1978,2000,2016,2014,2015,0,8D,"Non-MSA counties under 10,000",L,N,N,0,0,0,20422,VA1085S00,State Police: Franklin,,,,23851,36.684014,-76.941396
20409,VA103SP00,VA103SP00,State Police: Chesapeake,State Police: Chesapeake,4,State Police,,,,,51,VA,3668,,,A,23396,VAUCR0001,Virginia State Police Criminal Justice Information Services Division,VA,1975,,2016,2013,2016,0,7,"Cities under 2,500",L,Y,N,12,12,10,,,,2016,1,0,23320,36.679376,-76.301788
20212,VA0530100,VA0530100,Leesburg Police Department,Leesburg,1,City,,,11075,Leesburg,51,VA,2973,Loudoun,51107,A,23396,VAUCR0001,Virginia State Police Criminal Justice Information Services Division,VA,1960,,2016,2013,2016,51254,3,"Cities from 50,000 thru 99,000",L,N,N,12,12,10,,,,2016,68,15,20176,39.08113,-77.638857
20158,VA0350500,VA0350500,Narrows Police Department,Narrows,1,City,,,11089,Narrows,51,VA,2951,Giles,51071,A,23396,VAUCR0001,Virginia State Police Criminal Justice Information Services Division,VA,1960,,2016,2013,2016,1951,7,"Cities under 2,500",L,Y,N,12,12,10,,,,2016,5,0,24124,37.31193,-80.717178
20420,VA1080000,VA1080000,Falls Church Police Department,Falls Church,1,City,,,11040,Falls Church,51,VA,2942,Falls Church City,51610,A,23396,VAUCR0001,Virginia State Police Criminal Justice Information Services Division,VA,1960,,2016,2013,2016,13870,5,"Cities from 10,000 thru 24,999",M,Y,N,12,12,10,,,,2016,31,10,22046,38.883787,-77.174639
20078,VA011SP00,VA011SP00,State Police: Bland County,State Police: Bland County,4,State Police,,,,,51,VA,2913,Bland,51021,A,23396,VAUCR0001,Virginia State Police Criminal Justice Information Services Division,VA,1973,,2016,2013,2016,0,8D,"Non-MSA counties under 10,000",L,N,N,12,12,10,,,,2016,1,0,24382,37.130612,-81.125853
20106,VA021SP00,VA021SP00,State Police: Chesterfield County,State Police: Chesterfield County,4,State Police,,,,,51,VA,2927,Chesterfield,51041,A,23396,VAUCR0001,Virginia State Police Criminal Justice Information Services Division,VA,1968,,2016,2013,2016,0,9D,"MSA counties under 10,000",L,Y,N,12,12,10,,,,2016,1,0,23139,37.378434,-77.585847
20444,VA116SP00,VA116SP00,State Police: Newport News,State Police: Newport News,4,State Police,,,,,51,VA,3668,,,A,23396,VAUCR0001,Virginia State Police Criminal Justice Information Services Division,VA,1975,,2016,2013,2016,0,7,"Cities under 2,500",L,Y,N,12,12,9,,,,2016,1,0,23666,37.075978,-76.521719
20394,VA0970300,VA0970300,Rural Retreat Police Department,Rural Retreat,1,City,,,11117,Rural Retreat,51,VA,3035,Wythe,51197,A,23396,VAUCR0001,Virginia State Police Criminal Justice Information Services Division,VA,1981,,2016,2013,,1486,7,"Cities under 2,500",L,N,N,5,5,7,,,,2015,1,0,24368,36.901471,-81.084209
20304,VA0790100,VA0790100,Warsaw Police Department,Warsaw,1,City,,,11139,Warsaw,51,VA,3007,Richmond,51159,A,23396,VAUCR0001,Virginia State Police Criminal Justice Information Services Division,VA,1981,,2016,2013,2016,1499,7,"Cities under 2,500",L,N,N,12,12,10,,,,2016,4,0,22572,37.942894,-76.730561
20237,VA0600000,VA0600000,Montgomery County Sheriff's Office,Montgomery,2,County,,,,,51,VA,2984,Montgomery,51121,A,23396,VAUCR0001,Virginia State Police Criminal Justice Information Services Division,VA,1960,,2016,2013,2016,31331,9B,"MSA counties from 25,000 thru 99,999",L,Y,N,12,12,10,,,,2016,107,10,24073,37.174884,-80.387314
20485,VA1300600,VA1300600,Virginia Port Auth-Portsmouth,Virginia Port Auth-Portsmouth,5,Other,,,,,51,VA,3668,,,A,23396,VAUCR0001,Virginia State Police Criminal Justice Information Services Division,VA,1975,,2016,2014,2015,0,7,"Cities under 2,500",L,Y,N,0,0,0,20484,VA1300500,Port Authority Norfolk,1998,21,0,23707,36.85943,-76.356269
20044,VA0010200,VA0010200,Onancock Police Department,Onancock,1,City,,,11095,Onancock,51,VA,2901,Accomack,51001,A,23396,VAUCR0001,Virginia State Police Criminal Justice Information Services Division,VA,1981,,2016,2013,2016,1261,7,"Cities under 2,500",L,N,N,12,12,10,,,,2016,5,0,23417,37.765944,-75.757807
20226,VA0570000,VA0570000,Mathews County Sheriff's Office,Mathews,2,County,,,,,51,VA,2981,Mathews,51115,A,23396,VAUCR0001,Virginia State Police Criminal Justice Information Services Division,VA,1960,,2016,2013,2016,8779,9D,"MSA counties under 10,000",L,Y,N,12,12,10,,,,2016,11,7,23109,37.425348,-76.268808
20402,VA1000000,VA1000000,Bristol Police Department,Bristol,1,City,,,11003,Bristol,51,VA,2915,Bristol City,51520,A,23396,VAUCR0001,Virginia State Police Criminal Justice Information Services Division,VA,1960,,2016,2013,2016,16976,5,"Cities from 10,000 thru 24,999",M,N,Y,12,12,10,,,,2016,52,20,24201,36.616954,-82.157564
20374,VA0940100,VA0940100,Abingdon Police Department,Abingdon,1,City,,,10986,Abingdon,51,VA,3029,Washington,51191,A,23396,VAUCR0001,Virginia State Police Criminal Justice Information Services Division,VA,1960,,2016,2013,2016,8137,6,"Cities from 2,500 thru 9,999",L,Y,N,12,12,10,,,,2016,25,3,24210,36.747831,-81.950316
20280,VA0730200,VA0730200,Longwood University,Longwood University,3,University or College,,322,,,51,VA,3001,Prince Edward,51147,A,23396,VAUCR0001,Virginia State Police Criminal Justice Information Services Division,VA,1976,,2016,2013,2016,0,7,"Cities under 2,500",L,N,N,12,12,10,,,,2016,19,9,23909,37.224881,-78.432957
20445,VA1170000,VA1170000,Norfolk Police Department,Norfolk,1,City,,,11092,Norfolk,51,VA,2988,Norfolk City,51710,A,23396,VAUCR0001,Virginia State Police Criminal Justice Information Services Division,VA,1960,,2016,2013,2016,245400,2,"Cities from 100,000 thru 249,000",M,N,Y,12,12,10,,,,2016,718,93,23510,36.923015,-76.244641
20094,VA0170000,VA0170000,Caroline County Sheriff's Office,Caroline,2,County,,,,,51,VA,2921,Caroline,51033,A,23396,VAUCR0001,Virginia State Police Criminal Justice Information Services Division,VA,1960,,2016,2013,2016,28834,9B,"MSA counties from 25,000 thru 99,999",L,Y,N,12,12,10,,,,2016,48,20,22427,38.030319,-77.352348
20239,VA0600300,VA0600300,Christiansburg Police Department,Christiansburg,1,City,,,11018,Christiansburg,51,VA,2984,Montgomery,51121,A,23396,VAUCR0001,Virginia State Police Criminal Justice Information Services Division,VA,1960,,2016,2013,2016,22007,5,"Cities from 10,000 thru 24,999",L,N,Y,12,12,10,,,,2016,59,6,24073,37.174884,-80.387314
20324,VA0820600,VA0820600,James Madison University,James Madison University,3,University or College,,281,,,51,VA,3012,Rockingham,51165,A,23396,VAUCR0001,Virginia State Police Criminal Justice Information Services Division,VA,1975,,2016,2013,2016,0,7,"Cities under 2,500",L,Y,N,12,12,10,,,,2016,31,9,22807,38.431669,-78.876027
20338,VA0850200,VA0850200,Mount Jackson Police Department,Mount Jackson,1,City,,,11088,Mount Jackson,51,VA,3016,Shenandoah,51171,A,23396,VAUCR0001,Virginia State Police Criminal Justice Information Services Division,VA,1975,,2016,2013,2016,2046,7,"Cities under 2,500",L,N,N,12,12,10,,,,2016,5,0,22842,38.856204,-78.573987
20145,VA0330100,VA0330100,Rocky Mount Police Department,Rocky Mount,1,City,,,11116,Rocky Mount,51,VA,2946,Franklin,51067,A,23396,VAUCR0001,Virginia State Police Criminal Justice Information Services Division,VA,1971,,2016,2013,2016,4802,6,"Cities from 2,500 thru 9,999",L,Y,N,12,12,10,,,,2016,21,2,24151,36.99235,-79.883959
20494,VAPPD0000,VAPPD0000,U S Park Police,U S Park Police,5,Other,,,,,51,VA,3668,,,A,23396,VAUCR0001,Virginia State Police Criminal Justice Information Services Division,VA,1960,,2016,2014,2016,0,9D,"MSA counties under 10,000",L,Y,N,0,0,0,20495,VAVSP0000,State Police,,,,20024,38.904103,-77.017229
20098,VA0180100,VA0180100,Hillsville Police Department,Hillsville,1,City,,,11062,Hillsville,51,VA,2922,Carroll,51035,A,23396,VAUCR0001,Virginia State Police Criminal Justice Information Services Division,VA,1975,,2016,2013,2016,2667,6,"Cities from 2,500 thru 9,999",L,N,N,12,12,10,,,,2016,13,1,24343,36.731951,-80.727838
20393,VA0970200,VA0970200,Wythe Police Department Police Department,Wythe Police Department,1,City,,,11150,Wytheville,51,VA,3668,,,A,23396,VAUCR0001,Virginia State Police Criminal Justice Information Services Division,VA,1975,,2016,2014,1985,0,8D,"Non-MSA counties under 10,000",L,N,N,0,0,0,20392,VA0970100,Wytheville,1975,1,0,24382,36.901471,-81.084209
20069,VA008SP00,VA008SP00,State Police: Augusta County,State Police: Augusta County,4,State Police,,,,,51,VA,2909,Augusta,51015,A,23396,VAUCR0001,Virginia State Police Criminal Justice Information Services Division,VA,1973,,2016,2013,2016,0,9D,"MSA counties under 10,000",L,Y,N,12,12,9,,,,2016,1,0,24402,38.167807,-79.146682
20221,VA0550100,VA0550100,Kenbridge Police Department,Kenbridge,1,City,,,11070,Kenbridge,51,VA,2975,Lunenburg,51111,A,23396,VAUCR0001,Virginia State Police Criminal Justice Information Services Division,VA,1975,,2016,2013,2016,1236,7,"Cities under 2,500",L,N,N,12,12,9,,,,2016,5,0,23944,36.945757,-78.242313
20138,VA030SP00,VA030SP00,State Police: Fauquier County,State Police: Fauquier County,4,State Police,,,,,51,VA,2943,Fauquier,51061,A,23396,VAUCR0001,Virginia State Police Criminal Justice Information Services Division,VA,1973,,2016,2013,2016,0,9D,"MSA counties under 10,000",L,Y,N,12,12,10,,,,2016,1,0,20186,38.744103,-77.821585
20299,VA0770200,VA0770200,Dublin Police Department,Dublin,1,City,,,11033,Dublin,51,VA,3004,Pulaski,51155,A,23396,VAUCR0001,Virginia State Police Criminal Justice Information Services Division,VA,1964,,2016,2013,2016,2728,6,"Cities from 2,500 thru 9,999",L,Y,N,12,12,10,,,,2016,8,1,24084,37.063385,-80.713444
20391,VA0970000,VA0970000,Wythe County Sheriff's Office,Wythe,2,County,,,,,51,VA,3035,Wythe,51197,A,23396,VAUCR0001,Virginia State Police Criminal Justice Information Services Division,VA,1960,,2016,2013,2016,19410,8C,"Non-MSA counties from 10,000 thru 24,999",L,N,N,12,12,10,,,,2016,37,9,24382,36.901471,-81.084209
20288,VA0750200,VA0750200,Manassas Park Police Department,Manassas Park,1,City,,,11081,Manassas Park,51,VA,2979,Manassas Park City,51685,A,23396,VAUCR0001,Virginia State Police Criminal Justice Information Services Division,VA,1960,,2016,2013,2016,15333,5,"Cities from 10,000 thru 24,999",M,Y,N,12,12,10,,,,2016,34,9,20111,38.768991,-77.44868
20091,VA0160100,VA0160100,Altavista Police Department,Altavista,1,City,,,10988,Altavista,51,VA,2920,Campbell,51031,A,23396,VAUCR0001,Virginia State Police Criminal Justice Information Services Division,VA,1960,,2016,2013,2016,3462,6,"Cities from 2,500 thru 9,999",L,Y,N,12,12,10,,,,2016,13,0,24517,37.210151,-79.095428
20364,VA0920100,VA0920100,Bluefield Police Department,Bluefield,1,City,,,10999,Bluefield,51,VA,3026,Tazewell,51185,A,23396,VAUCR0001,Virginia State Police Criminal Justice Information Services Division,VA,1960,,2016,2013,2016,5268,6,"Cities from 2,500 thru 9,999",L,N,N,12,12,10,,,,2016,17,5,24605,37.125395,-81.562924
20365,VA0920200,VA0920200,Pocahontas Police Department,Pocahontas,1,City,,,11103,Pocahontas,51,VA,3026,Tazewell,51185,A,23396,VAUCR0001,Virginia State Police Criminal Justice Information Services Division,VA,1960,,2016,2013,2016,383,7,"Cities under 2,500",L,N,N,12,12,7,,,,2016,4,0,24635,37.125395,-81.562924
20376,VA0940300,VA0940300,Glade Spring Police Department,Glade Spring,1,City,,,11049,Glade Spring,51,VA,3029,Washington,51191,A,23396,VAUCR0001,Virginia State Police Criminal Justice Information Services Division,VA,1975,,2016,2014,,1458,7,"Cities under 2,500",L,Y,N,8,8,7,,,,2016,3,0,24340,36.747831,-81.950316
20375,VA0940200,VA0940200,Damascus Police Department,Damascus,1,City,,,11030,Damascus,51,VA,3029,Washington,51191,A,23396,VAUCR0001,Virginia State Police Criminal Justice Information Services Division,VA,1975,,2016,2013,2016,801,7,"Cities under 2,500",L,Y,N,12,12,10,,,,2016,4,0,24236,36.747831,-81.950316
20245,VA0620000,VA0620000,Nelson County Sheriff's Office,Nelson,2,County,,,,,51,VA,2985,Nelson,51125,A,23396,VAUCR0001,Virginia State Police Criminal Justice Information Services Division,VA,1960,,2016,2013,2016,14778,9C,"MSA counties from 10,000 thru 24,999",L,Y,N,12,12,10,,,,2016,18,4,22949,37.790049,-78.879353
20404,VA1010000,VA1010000,Buena Vista Police Department,Buena Vista,1,City,,,11007,Buena Vista,51,VA,2919,Buena Vista City,51530,A,23396,VAUCR0001,Virginia State Police Criminal Justice Information Services Division,VA,1960,,2016,2013,2016,6575,6,"Cities from 2,500 thru 9,999",M,N,N,12,12,8,,,,2016,16,1,24416,37.731663,-79.356375
20180,VA0430000,VA0430000,Henrico County Sheriff's Office,Henrico,2,County,,,,,51,VA,2961,Henrico,51087,A,23396,VAUCR0001,Virginia State Police Criminal Justice Information Services Division,VA,1960,,2016,2014,1985,0,9D,"MSA counties under 10,000",L,Y,N,0,0,0,20181,VA0430100,Henrico County Police Department,1974,213,45,23273,37.43752,-77.300333
20293,VA0750700,VA0750700,Occoquan Police Department,Occoquan,1,City,,,11094,Occoquan,51,VA,3003,Prince William,51153,A,23396,VAUCR0001,Virginia State Police Criminal Justice Information Services Division,VA,1975,,2016,2013,2016,1031,7,"Cities under 2,500",L,Y,N,12,12,9,,,,2016,1,0,22125,38.701119,-77.479579
20370,VA0930000,VA0930000,Warren County Sheriff's Office,Warren,2,County,,,,,51,VA,3028,Warren,51187,A,23396,VAUCR0001,Virginia State Police Criminal Justice Information Services Division,VA,1960,,2016,2013,2016,24078,9C,"MSA counties from 10,000 thru 24,999",L,Y,N,12,12,10,,,,2016,53,17,22630,38.908187,-78.207131
20054,VA0030100,VA0030100,Iron Gate Police Department,Iron Gate,1,City,,,11068,Iron Gate,51,VA,2904,Alleghany,51005,A,23396,VAUCR0001,Virginia State Police Criminal Justice Information Services Division,VA,1981,,2016,2014,1996,381,7,"Cities under 2,500",L,N,N,0,0,0,20053,VA0030000,Alleghany,1995,1,0,24448,37.787905,-80.008669
20412,VA1050000,VA1050000,Colonial Heights Police Department,Colonial Heights,1,City,,,11025,Colonial Heights,51,VA,2930,Colonial Heights City,51570,A,23396,VAUCR0001,Virginia State Police Criminal Justice Information Services Division,VA,1960,,2016,2013,2016,17770,5,"Cities from 10,000 thru 24,999",M,Y,N,12,12,10,,,,2016,52,4,23834,37.261685,-77.396804
20084,VA013SP00,VA013SP00,State Police: Brunswick County,State Police: Brunswick County,4,State Police,,,,,51,VA,2916,Brunswick,51025,A,23396,VAUCR0001,Virginia State Police Criminal Justice Information Services Division,VA,1973,,2016,2013,2016,0,8D,"Non-MSA counties under 10,000",L,N,N,12,12,7,,,,2016,1,0,23847,36.764531,-77.860916
20080,VA0120100,VA0120100,Buchanan Police Department,Buchanan,1,City,,,11006,Buchanan,51,VA,2914,Botetourt,51023,A,23396,VAUCR0001,Virginia State Police Criminal Justice Information Services Division,VA,1975,,2016,2014,1993,1169,7,"Cities under 2,500",L,Y,N,0,0,0,20079,VA0120000,Botetourt,1992,1,0,24066,37.553005,-79.804564
20303,VA0790000,VA0790000,Richmond County Sheriff's Office,Richmond,2,County,,,,,51,VA,3007,Richmond,51159,A,23396,VAUCR0001,Virginia State Police Criminal Justice Information Services Division,VA,1960,,2016,2013,2016,7291,8D,"Non-MSA counties under 10,000",L,N,N,12,12,10,,,,2016,15,8,22572,37.942894,-76.730561
20313,VA0810100,VA0810100,Glasgow Police Department,Glasgow,1,City,,,11050,Glasgow,51,VA,3011,Rockbridge,51163,A,23396,VAUCR0001,Virginia State Police Criminal Justice Information Services Division,VA,1998,,2016,2013,2016,1114,7,"Cities under 2,500",L,N,N,12,12,7,,,,2015,1,0,24555,37.814517,-79.447754
20440,VA115SP00,VA115SP00,State Police: Martinsville,State Police: Martinsville,4,State Police,,,,,51,VA,3668,,,A,23396,VAUCR0001,Virginia State Police Criminal Justice Information Services Division,VA,1976,,2016,2013,2016,0,7,"Cities under 2,500",L,N,N,12,12,4,,,,2016,1,0,24112,36.683527,-79.863647
20165,VA0380100,VA0380100,Fries Police Department,Fries,1,City,,,11045,Fries,51,VA,2954,Grayson,51077,A,23396,VAUCR0001,Virginia State Police Criminal Justice Information Services Division,VA,1975,,2016,2014,2006,467,7,"Cities under 2,500",L,N,N,0,0,4,20164,VA0380000,Grayson,2010,1,0,24330,36.656303,-81.225337
20492,VADMVRH00,VADMVRH00,Department of Motor Vehicles,Department of Motor Vehicles,6,Other State Agency,,,,,51,VA,3668,,,A,23396,VAUCR0001,Virginia State Police Criminal Justice Information Services Division,VA,2009,,2016,2013,2016,0,7,"Cities under 2,500",L,Y,N,12,12,8,,,,2016,79,15,23261,37.531399,-77.476009
20223,VA055SP00,VA055SP00,State Police: Lunenburg County,State Police: Lunenburg County,4,State Police,,,,,51,VA,2975,Lunenburg,51111,A,23396,VAUCR0001,Virginia State Police Criminal Justice Information Services Division,VA,1973,,2016,2013,2016,0,8D,"Non-MSA counties under 10,000",L,N,N,12,12,10,,,,2016,1,0,23970,36.945757,-78.242313
20263,VA068SP00,VA068SP00,State Police: Orange County,State Police: Orange County,4,State Police,,,,,51,VA,2993,Orange,51137,A,23396,VAUCR0001,Virginia State Police Criminal Justice Information Services Division,VA,1973,,2016,2013,2016,0,8D,"Non-MSA counties under 10,000",L,N,N,12,12,9,,,,2016,1,0,22701,38.250439,-78.00998
20296,VA075SP00,VA075SP00,State Police: Prince William County,State Police: Prince William County,4,State Police,,,,,51,VA,3003,Prince William,51153,A,23396,VAUCR0001,Virginia State Police Criminal Justice Information Services Division,VA,1971,,2016,2013,2016,0,9D,"MSA counties under 10,000",L,Y,N,12,12,10,,,,2016,1,0,22110,38.701119,-77.479579
20046,VA0010500,VA0010500,Onley Police Department,Onley,1,City,,,11096,Onley,51,VA,2901,Accomack,51001,A,23396,VAUCR0001,Virginia State Police Criminal Justice Information Services Division,VA,1981,,2016,2013,2016,517,7,"Cities under 2,500",L,N,N,12,12,9,,,,2016,5,0,23418,37.765944,-75.757807
20050,VA0020100,VA0020100,University of Virginia,University of Virginia,3,University or College,,835,,,51,VA,2902,Albemarle,51003,A,23396,VAUCR0001,Virginia State Police Criminal Justice Information Services Division,VA,1973,,2016,2013,2016,0,7,"Cities under 2,500",L,Y,N,12,12,10,,,,2016,54,64,22903,38.037658,-78.485381
20079,VA0120000,VA0120000,Botetourt County Sheriff's Office,Botetourt,2,County,,,,,51,VA,2914,Botetourt,51023,A,23396,VAUCR0001,Virginia State Police Criminal Justice Information Services Division,VA,1960,,2016,2013,2016,32990,9B,"MSA counties from 25,000 thru 99,999",L,Y,N,12,12,10,,,,2016,96,23,24090,37.553005,-79.804564
20319,VA0820100,VA0820100,Bridgewater Police Department,Bridgewater,1,City,,,11002,Bridgewater,51,VA,3012,Rockingham,51165,A,23396,VAUCR0001,Virginia State Police Criminal Justice Information Services Division,VA,1975,,2016,2013,2016,6029,6,"Cities from 2,500 thru 9,999",L,Y,N,12,12,10,,,,2016,9,0,22812,38.511257,-78.876307
20109,VA022SP00,VA022SP00,State Police: Clarke County,State Police: Clarke County,4,State Police,,,,,51,VA,2928,Clarke,51043,A,23396,VAUCR0001,Virginia State Police Criminal Justice Information Services Division,VA,1973,,2016,2013,2016,0,9D,"MSA counties under 10,000",L,Y,N,12,12,5,,,,2016,1,0,22602,39.115864,-77.991226
20455,VA119SP00,VA119SP00,State Police: Petersburg,State Police: Petersburg,4,State Police,,,,,51,VA,3668,,,A,23396,VAUCR0001,Virginia State Police Criminal Justice Information Services Division,VA,1975,,2016,2013,2016,0,7,"Cities under 2,500",L,Y,N,12,12,9,,,,2016,1,0,23803,37.20473,-77.392368
20124,VA027SP00,VA027SP00,State Police: Dinwiddie County,State Police: Dinwiddie County,4,State Police,,,,,51,VA,2937,Dinwiddie,51053,A,23396,VAUCR0001,Virginia State Police Criminal Justice Information Services Division,VA,1971,,2016,2013,2016,0,9D,"MSA counties under 10,000",L,Y,N,12,12,9,,,,2016,1,0,23885,37.073498,-77.635492
20474,VA127SP00,VA127SP00,State Police: Suffolk,State Police: Suffolk,4,State Police,,,,,51,VA,3668,,,A,23396,VAUCR0001,Virginia State Police Criminal Justice Information Services Division,VA,1975,,2016,2013,2016,0,7,"Cities under 2,500",L,Y,N,12,12,5,,,,2016,1,0,23320,36.697157,-76.634781
20144,VA0330000,VA0330000,Franklin County Sheriff's Office,Franklin,2,County,,,,,51,VA,2946,Franklin,51067,A,23396,VAUCR0001,Virginia State Police Criminal Justice Information Services Division,VA,1960,,2016,2013,2016,51440,9B,"MSA counties from 25,000 thru 99,999",L,Y,N,12,12,10,,,,2016,73,21,24151,36.99235,-79.883959
20107,VA0220000,VA0220000,Clarke County Sheriff's Office,Clarke,2,County,,,,,51,VA,2928,Clarke,51043,A,23396,VAUCR0001,Virginia State Police Criminal Justice Information Services Division,VA,1960,,2016,2013,2016,10154,9C,"MSA counties from 10,000 thru 24,999",L,Y,N,12,12,10,,,,2016,15,12,22611,39.115864,-77.991226
20388,VA0960600,VA0960600,Wise Police Department,Wise,1,City,,,11148,Wise,51,VA,3034,Wise,51195,A,23396,VAUCR0001,Virginia State Police Criminal Justice Information Services Division,VA,1960,,2016,2013,2016,3118,6,"Cities from 2,500 thru 9,999",L,N,N,12,12,10,,,,2016,12,1,24293,36.974561,-82.62156
20460,VA1220000,VA1220000,Richmond Police Department,Richmond,1,City,,,11114,Richmond,51,VA,3008,Richmond City,51760,A,23396,VAUCR0001,Virginia State Police Criminal Justice Information Services Division,VA,1960,,2016,2013,2016,220802,2,"Cities from 100,000 thru 249,000",M,N,Y,12,12,10,,,,2016,680,122,23220,37.531399,-77.476009
20088,VA0150000,VA0150000,Buckingham County Sheriff's Office,Buckingham,2,County,,,,,51,VA,2918,Buckingham,51029,A,23396,VAUCR0001,Virginia State Police Criminal Justice Information Services Division,VA,1960,,2016,2013,2016,16820,9C,"MSA counties from 10,000 thru 24,999",L,Y,N,12,12,10,,,,2016,19,7,23921,37.573928,-78.529169
20362,VA091SP00,VA091SP00,State Police: Sussex County,State Police: Sussex County,4,State Police,,,,,51,VA,3025,Sussex,51183,A,23396,VAUCR0001,Virginia State Police Criminal Justice Information Services Division,VA,1973,,2016,2013,2016,0,9D,"MSA counties under 10,000",L,Y,N,12,12,7,,,,2016,1,0,23890,36.926645,-77.259732
20181,VA0430100,VA0430100,Henrico County Police Department,Henrico County Police Department,2,County,,,,,51,VA,2961,Henrico,51087,A,23396,VAUCR0001,Virginia State Police Criminal Justice Information Services Division,VA,1960,,2016,2013,2016,324755,9A,"MSA counties 100,000 or over",L,Y,N,12,12,10,,,,2016,639,168,23273,37.43752,-77.300333
20211,VA0530000,VA0530000,Loudoun County Sheriff's Office,Loudoun,2,County,,,,,51,VA,2973,Loudoun,51107,A,23396,VAUCR0001,Virginia State Police Criminal Justice Information Services Division,VA,1960,,2016,2013,2016,313715,9A,"MSA counties 100,000 or over",L,Y,N,12,12,10,,,,2016,531,111,20175,39.08113,-77.638857
20395,VA097SP00,VA097SP00,State Police: Wythe County,State Police: Wythe County,4,State Police,,,,,51,VA,3035,Wythe,51197,A,23396,VAUCR0001,Virginia State Police Criminal Justice Information Services Division,VA,1973,,2016,2013,2016,0,8D,"Non-MSA counties under 10,000",L,N,N,12,12,10,,,,2016,1,0,24382,36.901471,-81.084209
20314,VA0810200,VA0810200,Lexington Police Department,Lexington,1,City,,,11076,Lexington,51,VA,2972,Lexington City,51678,A,23396,VAUCR0001,Virginia State Police Criminal Justice Information Services Division,VA,1960,,2016,2013,2016,7356,6,"Cities from 2,500 thru 9,999",M,N,N,12,12,10,,,,2016,17,2,24450,37.782332,-79.44432
20361,VA0910400,VA0910400,Waverly Police Department,Waverly,1,City,,,11140,Waverly,51,VA,3025,Sussex,51183,A,23396,VAUCR0001,Virginia State Police Criminal Justice Information Services Division,VA,1981,,2016,2013,2016,2064,7,"Cities under 2,500",L,Y,N,12,12,10,,,,2016,6,5,23890,36.926645,-77.259732
20389,VA0960700,VA0960700,University of Virginia's College at Wise,University of Virginia's College at Wise,3,University or College,,836,,,51,VA,3034,Wise,51195,A,23396,VAUCR0001,Virginia State Police Criminal Justice Information Services Division,VA,1992,,2016,2013,2016,0,7,"Cities under 2,500",L,N,N,12,12,10,,,,2016,9,1,24293,36.974561,-82.62156
20378,VA094SP00,VA094SP00,State Police: Washington County,State Police: Washington County,4,State Police,,,,,51,VA,3029,Washington,51191,A,23396,VAUCR0001,Virginia State Police Criminal Justice Information Services Division,VA,1973,,2016,2013,2016,0,9D,"MSA counties under 10,000",L,Y,N,12,12,10,,,,2016,1,0,24210,36.747831,-81.950316
20090,VA0160000,VA0160000,Campbell County Sheriff's Office,Campbell,2,County,,,,,51,VA,2920,Campbell,51031,A,23396,VAUCR0001,Virginia State Police Criminal Justice Information Services Division,VA,1960,,2016,2013,2016,50160,9B,"MSA counties from 25,000 thru 99,999",L,Y,N,12,12,10,,,,2016,59,9,24588,37.210151,-79.095428
20264,VA0690000,VA0690000,Page County Sheriff's Office,Page,2,County,,,,,51,VA,2994,Page,51139,A,23396,VAUCR0001,Virginia State Police Criminal Justice Information Services Division,VA,1960,,2016,2013,2016,14886,8C,"Non-MSA counties from 10,000 thru 24,999",L,N,N,12,12,10,,,,2016,55,17,22835,38.623751,-78.490471
20071,VA0090200,VA0090200,Special County Police Department/Hot Springs,Special County Police Department/Hot Springs,5,Other,,,11065,Hot Springs,51,VA,2910,Bath,51017,A,23396,VAUCR0001,Virginia State Police Criminal Justice Information Services Division,VA,1975,,2016,2014,2012,0,8D,"Non-MSA counties under 10,000",L,N,N,0,0,0,20070,VA0090000,Bath,1977,5,3,24445,38.068988,-79.732898
20232,VA0580500,VA0580500,South Hill Police Department,South Hill,1,City,,,11124,South Hill,51,VA,2982,Mecklenburg,51117,A,23396,VAUCR0001,Virginia State Police Criminal Justice Information Services Division,VA,1960,,2016,2013,2016,4515,6,"Cities from 2,500 thru 9,999",L,N,N,12,12,10,,,,2016,16,2,23970,36.687256,-78.368959
20198,VA0490000,VA0490000,King George County Sheriff's Office,King George,2,County,,,,,51,VA,2968,King George,51099,A,23396,VAUCR0001,Virginia State Police Criminal Justice Information Services Division,VA,1960,,2016,2013,2016,25745,8B,"Non-MSA counties from 25,000 thru 99,999",L,N,N,12,12,10,,,,2016,40,18,22485,38.277179,-77.162702
20469,VA1240000,VA1240000,South Boston Police Department,South Boston,1,City,,,11123,South Boston,51,VA,2957,Halifax,51083,A,23396,VAUCR0001,Virginia State Police Criminal Justice Information Services Division,VA,1960,,2016,2013,2016,7948,6,"Cities from 2,500 thru 9,999",L,N,N,12,12,10,,,,2016,28,3,24592,36.766461,-78.939614
20051,VA0020300,VA0020300,Albemarle County Police Department,Albemarle County Police Department,2,County,,,,,51,VA,2902,Albemarle,51003,A,23396,VAUCR0001,Virginia State Police Criminal Justice Information Services Division,VA,1984,,2016,2013,2016,105569,9A,"MSA counties 100,000 or over",L,Y,N,12,12,10,,,,2016,128,28,22902,38.024184,-78.553506
20294,VA075S100,VA075S100,State Police: Manassas,State Police: Manassas,4,State Police,,,,,51,VA,3668,,,A,23396,VAUCR0001,Virginia State Police Criminal Justice Information Services Division,VA,1978,,2016,2013,2016,0,7,"Cities under 2,500",L,Y,N,12,12,4,,,,2016,1,0,20112,38.747172,-77.484536
20305,VA079SP00,VA079SP00,State Police: Richmond County,State Police: Richmond County,4,State Police,,,,,51,VA,3007,Richmond,51159,A,23396,VAUCR0001,Virginia State Police Criminal Justice Information Services Division,VA,1973,,2016,2013,2016,0,8D,"Non-MSA counties under 10,000",L,N,N,12,12,6,,,,2016,1,0,23261,37.942894,-76.730561
20450,VA1180000,VA1180000,Norton Police Department,Norton,1,City,,,11093,Norton,51,VA,2991,Norton City,51720,A,23396,VAUCR0001,Virginia State Police Criminal Justice Information Services Division,VA,1960,,2016,2013,2016,4037,6,"Cities from 2,500 thru 9,999",M,N,N,12,12,10,,,,2016,17,8,24273,36.931549,-82.625996
20256,VA0670100,VA0670100,Blackstone Police Department,Blackstone,1,City,,,10997,Blackstone,51,VA,2992,Nottoway,51135,A,23396,VAUCR0001,Virginia State Police Criminal Justice Information Services Division,VA,1960,,2016,2013,2016,3538,6,"Cities from 2,500 thru 9,999",L,N,N,12,12,10,,,,2016,9,3,23824,37.143695,-78.052162
20312,VA0810000,VA0810000,Rockbridge County Sheriff's Office,Rockbridge,2,County,,,,,51,VA,3011,Rockbridge,51163,A,23396,VAUCR0001,Virginia State Police Criminal Justice Information Services Division,VA,1960,,2016,2013,2016,21165,8C,"Non-MSA counties from 10,000 thru 24,999",L,N,N,12,12,10,,,,2016,37,3,24450,37.814517,-79.447754
20137,VA0300200,VA0300200,Warrenton Police Department,Warrenton,1,City,,,11138,Warrenton,51,VA,2943,Fauquier,51061,A,23396,VAUCR0001,Virginia State Police Criminal Justice Information Services Division,VA,1960,,2016,2013,2016,9981,6,"Cities from 2,500 thru 9,999",L,Y,N,12,12,10,,,,2016,24,2,20186,38.744103,-77.821585
20133,VA0290500,VA0290500,Northern Virginia Community College,Northern Virginia Community College,3,University or College,,431,,,51,VA,2940,Fairfax,51059,A,23396,VAUCR0001,Virginia State Police Criminal Justice Information Services Division,VA,1991,,2016,2013,2016,0,7,"Cities under 2,500",L,Y,N,12,12,10,,,,2016,45,12,22003,38.833742,-77.276117
20119,VA0260200,VA0260200,Haysi Police Department,Haysi,1,City,,,11060,Haysi,51,VA,2936,Dickenson,51051,A,23396,VAUCR0001,Virginia State Police Criminal Justice Information Services Division,VA,1975,,2016,2013,2016,475,7,"Cities under 2,500",L,N,N,12,12,9,,,,2016,2,0,24256,37.137081,-82.349208
20240,VA0600400,VA0600400,Virginia Polytechnic Institute and State University,Virginia Polytechnic Institute and State University,3,University or College,,862,,,51,VA,2984,Montgomery,51121,A,23396,VAUCR0001,Virginia State Police Criminal Justice Information Services Division,VA,1975,,2016,2013,2016,0,7,"Cities under 2,500",L,Y,N,12,12,10,,,,2016,47,17,24061,37.174884,-80.387314
20208,VA0520100,VA0520100,Jonesville Police Department,Jonesville,1,City,,,11069,Jonesville,51,VA,2971,Lee,51105,A,23396,VAUCR0001,Virginia State Police Criminal Justice Information Services Division,VA,1970,,2016,2013,2016,977,7,"Cities under 2,500",L,N,N,12,12,10,,,,2016,4,0,24263,36.701721,-83.130112
20123,VA0270200,VA0270200,McKenney Police Department,McKenney,1,City,,,11084,McKenney,51,VA,2937,Dinwiddie,51053,A,23396,VAUCR0001,Virginia State Police Criminal Justice Information Services Division,VA,1981,,2016,2014,2008,475,7,"Cities under 2,500",L,Y,N,0,0,0,20122,VA0270000,Dinwiddie,2007,1,0,23872,37.073498,-77.635492
20390,VA096SP00,VA096SP00,State Police: Wise County,State Police: Wise County,4,State Police,,,,,51,VA,3034,Wise,51195,A,23396,VAUCR0001,Virginia State Police Criminal Justice Information Services Division,VA,1973,,2016,2013,2016,0,8D,"Non-MSA counties under 10,000",L,N,N,12,12,10,,,,2016,1,0,24293,36.974561,-82.62156
20097,VA0180000,VA0180000,Carroll County Sheriff's Office,Carroll,2,County,,,,,51,VA,2922,Carroll,51035,A,23396,VAUCR0001,Virginia State Police Criminal Justice Information Services Division,VA,1960,,2016,2013,2016,26771,8B,"Non-MSA counties from 25,000 thru 99,999",L,N,N,12,12,10,,,,2016,36,6,24343,36.731951,-80.727838
20168,VA0390000,VA0390000,Greene County Sheriff's Office,Greene,2,County,,,,,51,VA,2955,Greene,51079,A,23396,VAUCR0001,Virginia State Police Criminal Justice Information Services Division,VA,1960,,2016,2013,2016,19127,9C,"MSA counties from 10,000 thru 24,999",L,Y,N,12,12,10,,,,2016,25,17,22973,38.297981,-78.470163
20228,VA0580000,VA0580000,Mecklenburg County Sheriff's Office,Mecklenburg,2,County,,,,,51,VA,2982,Mecklenburg,51117,A,23396,VAUCR0001,Virginia State Police Criminal Justice Information Services Division,VA,1960,,2016,2013,2016,22238,8C,"Non-MSA counties from 10,000 thru 24,999",L,N,N,12,12,10,,,,2016,50,2,23917,36.687256,-78.368959
20339,VA0850300,VA0850300,Woodstock Police Department,Woodstock,1,City,,,11149,Woodstock,51,VA,3016,Shenandoah,51171,A,23396,VAUCR0001,Virginia State Police Criminal Justice Information Services Division,VA,1975,,2016,2013,2016,5257,6,"Cities from 2,500 thru 9,999",L,N,N,12,12,10,,,,2016,16,2,22664,38.856204,-78.573987
20231,VA0580400,VA0580400,La Crosse Police Department,La Crosse,1,City,,,11072,La Crosse,51,VA,2982,Mecklenburg,51117,A,23396,VAUCR0001,Virginia State Police Criminal Justice Information Services Division,VA,1990,,2016,2013,2016,588,7,"Cities under 2,500",L,N,N,12,12,7,,,,2016,1,0,23950,36.687256,-78.368959
20227,VA057SP00,VA057SP00,State Police: Mathews County,State Police: Mathews County,4,State Police,,,,,51,VA,2981,Mathews,51115,A,23396,VAUCR0001,Virginia State Police Criminal Justice Information Services Division,VA,1973,,2016,2013,2016,0,9D,"MSA counties under 10,000",L,Y,N,12,12,6,,,,2016,1,0,23061,37.425348,-76.268808
20355,VA088SP00,VA088SP00,State Police: Spotsylvania County,State Police: Spotsylvania County,4,State Police,,,,,51,VA,3020,Spotsylvania,51177,A,23396,VAUCR0001,Virginia State Police Criminal Justice Information Services Division,VA,1973,,2016,2013,2016,0,9D,"MSA counties under 10,000",L,Y,N,12,12,10,,,,2016,1,0,22408,38.182311,-77.65628
20353,VA087SP00,VA087SP00,State Police: Southampton County,State Police: Southampton County,4,State Police,,,,,51,VA,3019,Southampton,51175,A,23396,VAUCR0001,Virginia State Police Criminal Justice Information Services Division,VA,1973,,2016,2013,2016,0,8D,"Non-MSA counties under 10,000",L,N,N,12,12,10,,,,2016,1,0,23837,36.720173,-77.103856
20321,VA0820300,VA0820300,Dayton Police Department,Dayton,1,City,,,11032,Dayton,51,VA,3012,Rockingham,51165,A,23396,VAUCR0001,Virginia State Police Criminal Justice Information Services Division,VA,1975,,2016,2013,2016,1587,7,"Cities under 2,500",L,Y,N,12,12,10,,,,2016,6,1,22821,38.511257,-78.876307
20381,VA095SP00,VA095SP00,State Police: Westmoreland County,State Police: Westmoreland County,4,State Police,,,,,51,VA,3031,Westmoreland,51193,A,23396,VAUCR0001,Virginia State Police Criminal Justice Information Services Division,VA,1973,,2016,2013,2016,0,8D,"Non-MSA counties under 10,000",L,N,N,12,12,6,,,,2016,1,0,22572,38.109238,-76.804073
20337,VA0850100,VA0850100,Edinburg Police Department,Edinburg,1,City,,,11035,Edinburg,51,VA,3016,Shenandoah,51171,A,23396,VAUCR0001,Virginia State Police Criminal Justice Information Services Division,VA,1975,,2016,2013,2016,1071,7,"Cities under 2,500",L,N,N,0,0,8,20336,VA0850000,Shenandoah,2014,2,0,22824,38.856204,-78.573987
20467,VA1230200,VA1230200,Virginia Western Community College,Virginia Western Community College,3,University or College,,864,,,51,VA,3668,,,A,23396,VAUCR0001,Virginia State Police Criminal Justice Information Services Division,VA,1988,,2016,2013,2016,0,7,"Cities under 2,500",L,Y,N,12,12,9,,,,2016,9,0,24015,37.278458,-79.958174
20217,VA0540100,VA0540100,Louisa Police Department,Louisa,1,City,,,11077,Louisa,51,VA,2974,Louisa,51109,A,23396,VAUCR0001,Virginia State Police Criminal Justice Information Services Division,VA,1975,,2016,2013,2016,1623,7,"Cities under 2,500",L,N,N,12,12,10,,,,2016,6,0,23093,37.971681,-77.959178
20380,VA0950100,VA0950100,Colonial Beach Police Department,Colonial Beach,1,City,,,11024,Colonial Beach,51,VA,3031,Westmoreland,51193,A,23396,VAUCR0001,Virginia State Police Criminal Justice Information Services Division,VA,1973,,2016,2013,2016,3542,6,"Cities from 2,500 thru 9,999",L,N,N,12,12,10,,,,2016,10,1,22443,38.109238,-76.804073
20140,VA0310100,VA0310100,Floyd Police Department,Floyd,1,City,,,11042,Floyd,51,VA,2944,Floyd,51063,A,23396,VAUCR0001,Virginia State Police Criminal Justice Information Services Division,VA,1980,,2016,2014,1985,436,7,"Cities under 2,500",L,Y,N,0,0,0,20139,VA0310000,Floyd,1982,1,0,24091,36.931438,-80.350309
20419,VA107SP00,VA107SP00,State Police: Danville,State Police: Danville,4,State Police,,,,,51,VA,3668,,,A,23396,VAUCR0001,Virginia State Police Criminal Justice Information Services Division,VA,1976,,2016,2013,2016,0,7,"Cities under 2,500",L,N,N,12,12,7,,,,2016,1,0,24541,36.583334,-79.408071
20110,VA0230000,VA0230000,Craig County Sheriff's Office,Craig,2,County,,,,,51,VA,2932,Craig,51045,A,23396,VAUCR0001,Virginia State Police Criminal Justice Information Services Division,VA,1960,,2016,2013,2016,5235,9D,"MSA counties under 10,000",L,Y,N,12,12,9,,,,2016,10,5,24127,37.473129,-80.231734
20334,VA0840200,VA0840200,Weber City Police Department,Weber City,1,City,,,11142,Weber City,51,VA,3015,Scott,51169,A,23396,VAUCR0001,Virginia State Police Criminal Justice Information Services Division,VA,1981,,2016,2013,2016,1264,7,"Cities under 2,500",L,Y,N,12,12,10,,,,2016,4,0,24290,36.712778,-82.613627
20043,VA0010100,VA0010100,Chincoteague Police Department,Chincoteague,1,City,,,11017,Chincoteague,51,VA,2901,Accomack,51001,A,23396,VAUCR0001,Virginia State Police Criminal Justice Information Services Division,VA,1960,,2016,2013,2016,2907,6,"Cities from 2,500 thru 9,999",L,N,N,12,12,10,,,,2016,10,4,23336,37.765944,-75.757807
20195,VA047SP00,VA047SP00,State Police: James City County,State Police: James City County,4,State Police,,,,,51,VA,2966,James City,51095,A,23396,VAUCR0001,Virginia State Police Criminal Justice Information Services Division,VA,1973,,2016,2013,2016,0,9D,"MSA counties under 10,000",L,Y,N,12,12,7,,,,2016,1,0,23187,37.324427,-76.778319
20276,VA0720000,VA0720000,Powhatan County Sheriff's Office,Powhatan,2,County,,,,,51,VA,3000,Powhatan,51145,A,23396,VAUCR0001,Virginia State Police Criminal Justice Information Services Division,VA,1960,,2016,2013,2016,28466,9B,"MSA counties from 25,000 thru 99,999",L,Y,N,12,12,10,,,,2016,42,19,23139,37.549404,-77.912855
20261,VA0680100,VA0680100,Orange Police Department,Orange,1,City,,,11097,Orange,51,VA,2993,Orange,51137,A,23396,VAUCR0001,Virginia State Police Criminal Justice Information Services Division,VA,1960,,2016,2013,2016,4947,6,"Cities from 2,500 thru 9,999",L,N,N,12,12,10,,,,2016,14,2,22960,38.250439,-78.00998
20453,VA1190200,VA1190200,Virginia State University,Virginia State University,3,University or College,,863,,,51,VA,3668,,,A,23396,VAUCR0001,Virginia State Police Criminal Justice Information Services Division,VA,1989,,2016,2013,2016,0,7,"Cities under 2,500",L,Y,N,12,12,10,,,,2016,21,13,23806,37.20473,-77.392368
20309,VA0800300,VA0800300,Roanoke County Police Department,Roanoke County Police Department,2,County,,,,,51,VA,3009,Roanoke,51161,A,23396,VAUCR0001,Virginia State Police Criminal Justice Information Services Division,VA,1990,,2016,2013,2016,85660,9B,"MSA counties from 25,000 thru 99,999",L,Y,N,12,12,10,,,,2016,141,14,24019,37.331077,-80.19011
20042,VA0010000,VA0010000,Accomack County Sheriff's Office,Accomack,2,County,,,,,51,VA,2901,Accomack,51001,A,23396,VAUCR0001,Virginia State Police Criminal Justice Information Services Division,VA,1960,,2016,2013,2016,26257,8B,"Non-MSA counties from 25,000 thru 99,999",L,N,N,12,12,10,,,,2016,57,11,23301,37.765944,-75.757807
20433,VA1120000,VA1120000,Harrisonburg Police Department,Harrisonburg,1,City,,,11058,Harrisonburg,51,VA,2960,Harrisonburg City,51660,A,23396,VAUCR0001,Virginia State Police Criminal Justice Information Services Division,VA,1960,,2016,2013,2016,53226,3,"Cities from 50,000 thru 99,000",M,N,Y,12,12,10,,,,2016,95,18,22802,38.431669,-78.876027
20267,VA0690300,VA0690300,Stanley Police Department,Stanley,1,City,,,11125,Stanley,51,VA,2994,Page,51139,A,23396,VAUCR0001,Virginia State Police Criminal Justice Information Services Division,VA,1975,,2016,2013,2016,1659,7,"Cities under 2,500",L,N,N,12,12,10,,,,2016,3,0,22851,38.623751,-78.490471
20436,VA113SP00,VA113SP00,State Police: Hopewell,State Police: Hopewell,4,State Police,,,,,51,VA,3668,,,A,23396,VAUCR0001,Virginia State Police Criminal Justice Information Services Division,VA,1976,,2016,2013,2016,0,7,"Cities under 2,500",L,Y,N,12,12,6,,,,2016,1,0,23860,37.29101,-77.298944
20320,VA0820200,VA0820200,Broadway Police Department,Broadway,1,City,,,11004,Broadway,51,VA,3012,Rockingham,51165,A,23396,VAUCR0001,Virginia State Police Criminal Justice Information Services Division,VA,1999,,2016,2013,2016,3803,6,"Cities from 2,500 thru 9,999",L,Y,N,12,12,10,,,,2016,5,0,22815,38.511257,-78.876307
20100,VA0190000,VA0190000,Charles City County Sheriff's Office,Charles City,2,County,,,,,51,VA,2923,Charles City,51036,A,23396,VAUCR0001,Virginia State Police Criminal Justice Information Services Division,VA,1960,,2016,2013,2016,6946,9D,"MSA counties under 10,000",L,Y,N,12,12,10,,,,2016,10,6,23030,37.361054,-77.05417
20254,VA066SP00,VA066SP00,State Police: Northumberland County,State Police: Northumberland County,4,State Police,,,,,51,VA,2990,Northumberland,51133,A,23396,VAUCR0001,Virginia State Police Criminal Justice Information Services Division,VA,1973,,2016,2013,2016,0,8D,"Non-MSA counties under 10,000",L,N,N,12,12,6,,,,2016,1,0,22572,37.856974,-76.379687
20315,VA0810300,VA0810300,Virginia Military Institute,Virginia Military Institute,3,University or College,,861,,,51,VA,3011,Rockbridge,51163,A,23396,VAUCR0001,Virginia State Police Criminal Justice Information Services Division,VA,1999,,2016,2013,2016,0,7,"Cities under 2,500",L,N,N,12,12,9,,,,2016,11,1,24450,37.782332,-79.44432
20265,VA0690100,VA0690100,Luray Police Department,Luray,1,City,,,11078,Luray,51,VA,2994,Page,51139,A,23396,VAUCR0001,Virginia State Police Criminal Justice Information Services Division,VA,1960,,2016,2013,2016,4842,6,"Cities from 2,500 thru 9,999",L,N,N,12,12,10,,,,2016,12,1,22835,38.623751,-78.490471
20349,VA0870100,VA0870100,Franklin Police Department,Franklin,1,City,,,11043,Franklin,51,VA,3668,,,A,23396,VAUCR0001,Virginia State Police Criminal Justice Information Services Division,VA,1960,2000,2016,2014,2000,0,7,"Cities under 2,500",L,N,N,0,0,0,20421,VA1085000,Franklin,1994,23,9,23851,36.684014,-76.941396
